$GPGGA,090000.00,2726.64926943,S,15304.47959030,E,1,05,2.87,160.00,M,-21.3213,M,,*6C
$GPGGA,090000.10,2726.64926943,S,15304.47959030,E,1,05,2.87,160.00,M,-21.3213,M,,*6D
$GPGGA,090000.20,2726.64926943,S,15304.47959030,E,1,05,2.87,160.00,M,-21.3213,M,,*6E
$GPGGA,090000.30,2726.64926943,S,15304.47959030,E,1,05,2.87,160.00,M,-21.3213,M,,*6F
$GPGGA,090000.40,2726.64926943,S,15304.47959030,E,1,05,2.87,160.00,M,-21.3213,M,,*68
$GPGGA,090000.50,2726.64926943,S,15304.47959030,E,1,05,2.87,160.00,M,-21.3213,M,,*69
$GPGGA,090000.60,2726.64926943,S,15304.47959030,E,1,05,2.87,160.00,M,-21.3213,M,,*6A
$GPGGA,090000.70,2726.64926943,S,15304.47959030,E,1,05,2.87,160.00,M,-21.3213,M,,*6B
$GPGGA,090000.80,2726.64926943,S,15304.47959030,E,1,05,2.87,160.00,M,-21.3213,M,,*64
$GPGGA,090000.90,2726.64926943,S,15304.47959030,E,1,05,2.87,160.00,M,-21.3213,M,,*65
$GPGGA,090001.00,2726.64926943,S,15304.47959030,E,1,05,2.87,160.00,M,-21.3213,M,,*6D
$GPGGA,090001.10,2726.64926943,S,15304.47959030,E,1,05,2.87,160.00,M,-21.3213,M,,*6C
$GPGGA,090001.20,2726.64926943,S,15304.47959030,E,1,05,2.87,160.00,M,-21.3213,M,,*6F
$GPGGA,090001.30,2726.64926943,S,15304.47959030,E,1,05,2.87,160.00,M,-21.3213,M,,*6E
$GPGGA,090001.40,2726.64926943,S,15304.47959030,E,1,05,2.87,160.00,M,-21.3213,M,,*69
$GPGGA,090001.50,2726.64926943,S,15304.47959030,E,1,05,2.87,160.00,M,-21.3213,M,,*68
$GPGGA,090001.60,2726.64926943,S,15304.47959030,E,1,05,2.87,160.00,M,-21.3213,M,,*6B
$GPGGA,090001.70,2726.64926943,S,15304.47959030,E,1,05,2.87,160.00,M,-21.3213,M,,*6A
$GPGGA,090001.80,2726.64926943,S,15304.47959030,E,1,05,2.87,160.00,M,-21.3213,M,,*65
$GPGGA,090001.90,2726.64926943,S,15304.47959030,E,1,05,2.87,160.00,M,-21.3213,M,,*64
$GPGGA,090002.00,2726.64926943,S,15304.47959030,E,1,05,2.87,160.00,M,-21.3213,M,,*6E
$GPGGA,090002.10,2726.64926943,S,15304.47959030,E,1,05,2.87,160.00,M,-21.3213,M,,*6F
$GPGGA,090002.20,2726.64926943,S,15304.47959030,E,1,05,2.87,160.00,M,-21.3213,M,,*6C
$GPGGA,090002.30,2726.64926943,S,15304.47959030,E,1,05,2.87,160.00,M,-21.3213,M,,*6D
$GPGGA,090002.40,2726.64926943,S,15304.47959030,E,1,05,2.87,160.00,M,-21.3213,M,,*6A
$GPGGA,090002.50,2726.64926943,S,15304.47959030,E,1,05,2.87,160.00,M,-21.3213,M,,*6B
$GPGGA,090002.60,2726.64926943,S,15304.47959030,E,1,05,2.87,160.00,M,-21.3213,M,,*68
$GPGGA,090002.70,2726.64926943,S,15304.47959030,E,1,05,2.87,160.00,M,-21.3213,M,,*69
$GPGGA,090002.80,2726.64926943,S,15304.47959030,E,1,05,2.87,160.00,M,-21.3213,M,,*66
$GPGGA,090002.90,2726.64926943,S,15304.47959030,E,1,05,2.87,160.00,M,-21.3213,M,,*67
$GPGGA,090003.00,2726.64926943,S,15304.47959030,E,1,05,2.87,160.00,M,-21.3213,M,,*6F
$GPGGA,090003.10,2726.64926943,S,15304.47959030,E,1,05,2.87,160.00,M,-21.3213,M,,*6E
$GPGGA,090003.20,2726.64926943,S,15304.47959030,E,1,05,2.87,160.00,M,-21.3213,M,,*6D
$GPGGA,090003.30,2726.64926943,S,15304.47959030,E,1,05,2.87,160.00,M,-21.3213,M,,*6C
$GPGGA,090003.40,2726.64926943,S,15304.47959030,E,1,05,2.87,160.00,M,-21.3213,M,,*6B
$GPGGA,090003.50,2726.64926943,S,15304.47959030,E,1,05,2.87,160.00,M,-21.3213,M,,*6A
$GPGGA,090003.60,2726.64926943,S,15304.47959030,E,1,05,2.87,160.00,M,-21.3213,M,,*69
$GPGGA,090003.70,2726.64926943,S,15304.47959030,E,1,05,2.87,160.00,M,-21.3213,M,,*68
$GPGGA,090003.80,2726.64926943,S,15304.47959030,E,1,05,2.87,160.00,M,-21.3213,M,,*67
$GPGGA,090003.90,2726.64926943,S,15304.47959030,E,1,05,2.87,160.00,M,-21.3213,M,,*66
$GPGGA,090004.00,2726.64926943,S,15304.47959030,E,1,05,2.87,160.00,M,-21.3213,M,,*68
$GPGGA,090004.10,2726.64926943,S,15304.47959030,E,1,05,2.87,160.00,M,-21.3213,M,,*69
$GPGGA,090004.20,2726.64926943,S,15304.47959030,E,1,05,2.87,160.00,M,-21.3213,M,,*6A
$GPGGA,090004.30,2726.64926943,S,15304.47959030,E,1,05,2.87,160.00,M,-21.3213,M,,*6B
$GPGGA,090004.40,2726.64926943,S,15304.47959030,E,1,05,2.87,160.00,M,-21.3213,M,,*6C
$GPGGA,090004.50,2726.64926943,S,15304.47959030,E,1,05,2.87,160.00,M,-21.3213,M,,*6D
$GPGGA,090004.60,2726.64926943,S,15304.47959030,E,1,05,2.87,160.00,M,-21.3213,M,,*6E
$GPGGA,090004.70,2726.64926943,S,15304.47959030,E,1,05,2.87,160.00,M,-21.3213,M,,*6F
$GPGGA,090004.80,2726.64926943,S,15304.47959030,E,1,05,2.87,160.00,M,-21.3213,M,,*60
$GPGGA,090004.90,2726.64926943,S,15304.47959030,E,1,05,2.87,160.00,M,-21.3213,M,,*61
$GPGGA,090005.00,2726.64926943,S,15304.47959030,E,1,05,2.87,160.00,M,-21.3213,M,,*69
$GPGGA,090005.10,2726.64926943,S,15304.47959030,E,1,05,2.87,160.00,M,-21.3213,M,,*68
$GPGGA,090005.20,2726.64926943,S,15304.47959030,E,1,05,2.87,160.00,M,-21.3213,M,,*6B
$GPGGA,090005.30,2726.64926943,S,15304.47959030,E,1,05,2.87,160.00,M,-21.3213,M,,*6A
$GPGGA,090005.40,2726.64926943,S,15304.47959030,E,1,05,2.87,160.00,M,-21.3213,M,,*6D
$GPGGA,090005.50,2726.64926943,S,15304.47959030,E,1,05,2.87,160.00,M,-21.3213,M,,*6C
$GPGGA,090005.60,2726.64926943,S,15304.47959030,E,1,05,2.87,160.00,M,-21.3213,M,,*6F
$GPGGA,090005.70,2726.64926943,S,15304.47959030,E,1,05,2.87,160.00,M,-21.3213,M,,*6E
$GPGGA,090005.80,2726.64926943,S,15304.47959030,E,1,05,2.87,160.00,M,-21.3213,M,,*61
$GPGGA,090005.90,2726.64926943,S,15304.47959030,E,1,05,2.87,160.00,M,-21.3213,M,,*60
$GPGGA,090006.00,2726.64926943,S,15304.47959030,E,1,05,2.87,160.00,M,-21.3213,M,,*6A
$GPGGA,090006.10,2726.64926943,S,15304.47959030,E,1,05,2.87,160.00,M,-21.3213,M,,*6B
$GPGGA,090006.20,2726.64926943,S,15304.47959030,E,1,05,2.87,160.00,M,-21.3213,M,,*68
$GPGGA,090006.30,2726.64926943,S,15304.47959030,E,1,05,2.87,160.00,M,-21.3213,M,,*69
$GPGGA,090006.40,2726.64926943,S,15304.47959030,E,1,05,2.87,160.00,M,-21.3213,M,,*6E
$GPGGA,090006.50,2726.64926943,S,15304.47959030,E,1,05,2.87,160.00,M,-21.3213,M,,*6F
$GPGGA,090006.60,2726.64926943,S,15304.47959030,E,1,05,2.87,160.00,M,-21.3213,M,,*6C
$GPGGA,090006.70,2726.64926943,S,15304.47959030,E,1,05,2.87,160.00,M,-21.3213,M,,*6D
$GPGGA,090006.80,2726.64926943,S,15304.47959030,E,1,05,2.87,160.00,M,-21.3213,M,,*62
$GPGGA,090006.90,2726.64926943,S,15304.47959030,E,1,05,2.87,160.00,M,-21.3213,M,,*63
$GPGGA,090007.00,2726.64926943,S,15304.47959030,E,1,05,2.87,160.00,M,-21.3213,M,,*6B
$GPGGA,090007.10,2726.64926943,S,15304.47959030,E,1,05,2.87,160.00,M,-21.3213,M,,*6A
$GPGGA,090007.20,2726.64926943,S,15304.47959030,E,1,05,2.87,160.00,M,-21.3213,M,,*69
$GPGGA,090007.30,2726.64926943,S,15304.47959030,E,1,05,2.87,160.00,M,-21.3213,M,,*68
$GPGGA,090007.40,2726.64926943,S,15304.47959030,E,1,05,2.87,160.00,M,-21.3213,M,,*6F
$GPGGA,090007.50,2726.64926943,S,15304.47959030,E,1,05,2.87,160.00,M,-21.3213,M,,*6E
$GPGGA,090007.60,2726.64926943,S,15304.47959030,E,1,05,2.87,160.00,M,-21.3213,M,,*6D
$GPGGA,090007.70,2726.64926943,S,15304.47959030,E,1,05,2.87,160.00,M,-21.3213,M,,*6C
$GPGGA,090007.80,2726.64926943,S,15304.47959030,E,1,05,2.87,160.00,M,-21.3213,M,,*63
$GPGGA,090007.90,2726.64926943,S,15304.47959030,E,1,05,2.87,160.00,M,-21.3213,M,,*62
$GPGGA,090008.00,2726.64926943,S,15304.47959030,E,1,05,2.87,160.00,M,-21.3213,M,,*64
$GPGGA,090008.10,2726.64926943,S,15304.47959030,E,1,05,2.87,160.00,M,-21.3213,M,,*65
$GPGGA,090008.20,2726.64926943,S,15304.47959030,E,1,05,2.87,160.00,M,-21.3213,M,,*66
$GPGGA,090008.30,2726.64926943,S,15304.47959030,E,1,05,2.87,160.00,M,-21.3213,M,,*67
$GPGGA,090008.40,2726.64926943,S,15304.47959030,E,1,05,2.87,160.00,M,-21.3213,M,,*60
$GPGGA,090008.50,2726.64926943,S,15304.47959030,E,1,05,2.87,160.00,M,-21.3213,M,,*61
$GPGGA,090008.60,2726.64926943,S,15304.47959030,E,1,05,2.87,160.00,M,-21.3213,M,,*62
$GPGGA,090008.70,2726.64926943,S,15304.47959030,E,1,05,2.87,160.00,M,-21.3213,M,,*63
$GPGGA,090008.80,2726.64926943,S,15304.47959030,E,1,05,2.87,160.00,M,-21.3213,M,,*6C
$GPGGA,090008.90,2726.64926943,S,15304.47959030,E,1,05,2.87,160.00,M,-21.3213,M,,*6D
$GPGGA,090009.00,2726.64926943,S,15304.47959030,E,1,05,2.87,160.00,M,-21.3213,M,,*65
$GPGGA,090009.10,2726.64926943,S,15304.47959030,E,1,05,2.87,160.00,M,-21.3213,M,,*64
$GPGGA,090009.20,2726.64926943,S,15304.47959030,E,1,05,2.87,160.00,M,-21.3213,M,,*67
$GPGGA,090009.30,2726.64926943,S,15304.47959030,E,1,05,2.87,160.00,M,-21.3213,M,,*66
$GPGGA,090009.40,2726.64926943,S,15304.47959030,E,1,05,2.87,160.00,M,-21.3213,M,,*61
$GPGGA,090009.50,2726.64926943,S,15304.47959030,E,1,05,2.87,160.00,M,-21.3213,M,,*60
$GPGGA,090009.60,2726.64926943,S,15304.47959030,E,1,05,2.87,160.00,M,-21.3213,M,,*63
$GPGGA,090009.70,2726.64926943,S,15304.47959030,E,1,05,2.87,160.00,M,-21.3213,M,,*62
$GPGGA,090009.80,2726.64926943,S,15304.47959030,E,1,05,2.87,160.00,M,-21.3213,M,,*6D
$GPGGA,090009.90,2726.64926943,S,15304.47959030,E,1,05,2.87,160.00,M,-21.3213,M,,*6C
$GPGGA,090010.00,2726.64926943,S,15304.47959030,E,1,05,2.87,160.00,M,-21.3213,M,,*6D
$GPGGA,090010.10,2726.64926943,S,15304.47959030,E,1,05,2.87,160.00,M,-21.3213,M,,*6C
$GPGGA,090010.20,2726.64926943,S,15304.47959030,E,1,05,2.87,160.00,M,-21.3213,M,,*6F
$GPGGA,090010.30,2726.64926943,S,15304.47959030,E,1,05,2.87,160.00,M,-21.3213,M,,*6E
$GPGGA,090010.40,2726.64926943,S,15304.47959030,E,1,05,2.87,160.00,M,-21.3213,M,,*69
$GPGGA,090010.50,2726.64926943,S,15304.47959030,E,1,05,2.87,160.00,M,-21.3213,M,,*68
$GPGGA,090010.60,2726.64926943,S,15304.47959030,E,1,05,2.87,160.00,M,-21.3213,M,,*6B
$GPGGA,090010.70,2726.64926943,S,15304.47959030,E,1,05,2.87,160.00,M,-21.3213,M,,*6A
$GPGGA,090010.80,2726.64926943,S,15304.47959030,E,1,05,2.87,160.00,M,-21.3213,M,,*65
$GPGGA,090010.90,2726.64926943,S,15304.47959030,E,1,05,2.87,160.00,M,-21.3213,M,,*64
$GPGGA,090011.00,2726.64926943,S,15304.47959030,E,1,05,2.87,160.00,M,-21.3213,M,,*6C
$GPGGA,090011.10,2726.64926943,S,15304.47959030,E,1,05,2.87,160.00,M,-21.3213,M,,*6D
$GPGGA,090011.20,2726.64926943,S,15304.47959030,E,1,05,2.87,160.00,M,-21.3213,M,,*6E
$GPGGA,090011.30,2726.64926943,S,15304.47959030,E,1,05,2.87,160.00,M,-21.3213,M,,*6F
$GPGGA,090011.40,2726.64926943,S,15304.47959030,E,1,05,2.87,160.00,M,-21.3213,M,,*68
$GPGGA,090011.50,2726.64926943,S,15304.47959030,E,1,05,2.87,160.00,M,-21.3213,M,,*69
$GPGGA,090011.60,2726.64926943,S,15304.47959030,E,1,05,2.87,160.00,M,-21.3213,M,,*6A
$GPGGA,090011.70,2726.64926943,S,15304.47959030,E,1,05,2.87,160.00,M,-21.3213,M,,*6B
$GPGGA,090011.80,2726.64926943,S,15304.47959030,E,1,05,2.87,160.00,M,-21.3213,M,,*64
$GPGGA,090011.90,2726.64926943,S,15304.47959030,E,1,05,2.87,160.00,M,-21.3213,M,,*65
$GPGGA,090012.00,2726.64926943,S,15304.47959030,E,1,05,2.87,160.00,M,-21.3213,M,,*6F
$GPGGA,090012.10,2726.64926943,S,15304.47959030,E,1,05,2.87,160.00,M,-21.3213,M,,*6E
$GPGGA,090012.20,2726.64926943,S,15304.47959030,E,1,05,2.87,160.00,M,-21.3213,M,,*6D
$GPGGA,090012.30,2726.64926943,S,15304.47959030,E,1,05,2.87,160.00,M,-21.3213,M,,*6C
$GPGGA,090012.40,2726.64926943,S,15304.47959030,E,1,05,2.87,160.00,M,-21.3213,M,,*6B
$GPGGA,090012.50,2726.64926943,S,15304.47959030,E,1,05,2.87,160.00,M,-21.3213,M,,*6A
$GPGGA,090012.60,2726.64926943,S,15304.47959030,E,1,05,2.87,160.00,M,-21.3213,M,,*69
$GPGGA,090012.70,2726.64926943,S,15304.47959030,E,1,05,2.87,160.00,M,-21.3213,M,,*68
$GPGGA,090012.80,2726.64926943,S,15304.47959030,E,1,05,2.87,160.00,M,-21.3213,M,,*67
$GPGGA,090012.90,2726.64926943,S,15304.47959030,E,1,05,2.87,160.00,M,-21.3213,M,,*66
$GPGGA,090013.00,2726.64926943,S,15304.47959030,E,1,05,2.87,160.00,M,-21.3213,M,,*6E
$GPGGA,090013.10,2726.64926943,S,15304.47959030,E,1,05,2.87,160.00,M,-21.3213,M,,*6F
$GPGGA,090013.20,2726.64926943,S,15304.47959030,E,1,05,2.87,160.00,M,-21.3213,M,,*6C
$GPGGA,090013.30,2726.64926943,S,15304.47959030,E,1,05,2.87,160.00,M,-21.3213,M,,*6D
$GPGGA,090013.40,2726.64926943,S,15304.47959030,E,1,05,2.87,160.00,M,-21.3213,M,,*6A
$GPGGA,090013.50,2726.64926943,S,15304.47959030,E,1,05,2.87,160.00,M,-21.3213,M,,*6B
$GPGGA,090013.60,2726.64926943,S,15304.47959030,E,1,05,2.87,160.00,M,-21.3213,M,,*68
$GPGGA,090013.70,2726.64926943,S,15304.47959030,E,1,05,2.87,160.00,M,-21.3213,M,,*69
$GPGGA,090013.80,2726.64926943,S,15304.47959030,E,1,05,2.87,160.00,M,-21.3213,M,,*66
$GPGGA,090013.90,2726.64926943,S,15304.47959030,E,1,05,2.87,160.00,M,-21.3213,M,,*67
$GPGGA,090014.00,2726.64926943,S,15304.47959030,E,1,05,2.87,160.00,M,-21.3213,M,,*69
$GPGGA,090014.10,2726.64926943,S,15304.47959030,E,1,05,2.87,160.00,M,-21.3213,M,,*68
$GPGGA,090014.20,2726.64926943,S,15304.47959030,E,1,05,2.87,160.00,M,-21.3213,M,,*6B
$GPGGA,090014.30,2726.64926943,S,15304.47959030,E,1,05,2.87,160.00,M,-21.3213,M,,*6A
$GPGGA,090014.40,2726.64926943,S,15304.47959030,E,1,05,2.87,160.00,M,-21.3213,M,,*6D
$GPGGA,090014.50,2726.64926943,S,15304.47959030,E,1,05,2.87,160.00,M,-21.3213,M,,*6C
$GPGGA,090014.60,2726.64926943,S,15304.47959030,E,1,05,2.87,160.00,M,-21.3213,M,,*6F
$GPGGA,090014.70,2726.64926943,S,15304.47959030,E,1,05,2.87,160.00,M,-21.3213,M,,*6E
$GPGGA,090014.80,2726.64926943,S,15304.47959030,E,1,05,2.87,160.00,M,-21.3213,M,,*61
$GPGGA,090014.90,2726.64926943,S,15304.47959030,E,1,05,2.87,160.00,M,-21.3213,M,,*60
$GPGGA,090015.00,2726.64926943,S,15304.47959030,E,1,05,2.87,160.00,M,-21.3213,M,,*68
$GPGGA,090015.10,2726.64926943,S,15304.47959030,E,1,05,2.87,160.00,M,-21.3213,M,,*69
$GPGGA,090015.20,2726.64926943,S,15304.47959030,E,1,05,2.87,160.00,M,-21.3213,M,,*6A
$GPGGA,090015.30,2726.64926943,S,15304.47959030,E,1,05,2.87,160.00,M,-21.3213,M,,*6B
$GPGGA,090015.40,2726.64926943,S,15304.47959030,E,1,05,2.87,160.00,M,-21.3213,M,,*6C
$GPGGA,090015.50,2726.64926943,S,15304.47959030,E,1,05,2.87,160.00,M,-21.3213,M,,*6D
$GPGGA,090015.60,2726.64926943,S,15304.47959030,E,1,05,2.87,160.00,M,-21.3213,M,,*6E
$GPGGA,090015.70,2726.64926943,S,15304.47959030,E,1,05,2.87,160.00,M,-21.3213,M,,*6F
$GPGGA,090015.80,2726.64926943,S,15304.47959030,E,1,05,2.87,160.00,M,-21.3213,M,,*60
$GPGGA,090015.90,2726.64926943,S,15304.47959030,E,1,05,2.87,160.00,M,-21.3213,M,,*61
$GPGGA,090016.00,2726.64926943,S,15304.47959030,E,1,05,2.87,160.00,M,-21.3213,M,,*6B
$GPGGA,090016.10,2726.64926943,S,15304.47959030,E,1,05,2.87,160.00,M,-21.3213,M,,*6A
$GPGGA,090016.20,2726.64926943,S,15304.47959030,E,1,05,2.87,160.00,M,-21.3213,M,,*69
$GPGGA,090016.30,2726.64926943,S,15304.47959030,E,1,05,2.87,160.00,M,-21.3213,M,,*68
$GPGGA,090016.40,2726.64926943,S,15304.47959030,E,1,05,2.87,160.00,M,-21.3213,M,,*6F
$GPGGA,090016.50,2726.64926943,S,15304.47959030,E,1,05,2.87,160.00,M,-21.3213,M,,*6E
$GPGGA,090016.60,2726.64926943,S,15304.47959030,E,1,05,2.87,160.00,M,-21.3213,M,,*6D
$GPGGA,090016.70,2726.64926943,S,15304.47959030,E,1,05,2.87,160.00,M,-21.3213,M,,*6C
$GPGGA,090016.80,2726.64926943,S,15304.47959030,E,1,05,2.87,160.00,M,-21.3213,M,,*63
$GPGGA,090016.90,2726.64926943,S,15304.47959030,E,1,05,2.87,160.00,M,-21.3213,M,,*62
$GPGGA,090017.00,2726.64926943,S,15304.47959030,E,1,05,2.87,160.00,M,-21.3213,M,,*6A
$GPGGA,090017.10,2726.64926943,S,15304.47959030,E,1,05,2.87,160.00,M,-21.3213,M,,*6B
$GPGGA,090017.20,2726.64926943,S,15304.47959030,E,1,05,2.87,160.00,M,-21.3213,M,,*68
$GPGGA,090017.30,2726.64926943,S,15304.47959030,E,1,05,2.87,160.00,M,-21.3213,M,,*69
$GPGGA,090017.40,2726.64926943,S,15304.47959030,E,1,05,2.87,160.00,M,-21.3213,M,,*6E
$GPGGA,090017.50,2726.64926943,S,15304.47959030,E,1,05,2.87,160.00,M,-21.3213,M,,*6F
$GPGGA,090017.60,2726.64926943,S,15304.47959030,E,1,05,2.87,160.00,M,-21.3213,M,,*6C
$GPGGA,090017.70,2726.64926943,S,15304.47959030,E,1,05,2.87,160.00,M,-21.3213,M,,*6D
$GPGGA,090017.80,2726.64926943,S,15304.47959030,E,1,05,2.87,160.00,M,-21.3213,M,,*62
$GPGGA,090017.90,2726.64926943,S,15304.47959030,E,1,05,2.87,160.00,M,-21.3213,M,,*63
$GPGGA,090018.00,2726.64926943,S,15304.47959030,E,1,05,2.87,160.00,M,-21.3213,M,,*65
$GPGGA,090018.10,2726.64926943,S,15304.47959030,E,1,05,2.87,160.00,M,-21.3213,M,,*64
$GPGGA,090018.20,2726.64926943,S,15304.47959030,E,1,05,2.87,160.00,M,-21.3213,M,,*67
$GPGGA,090018.30,2726.64926943,S,15304.47959030,E,1,05,2.87,160.00,M,-21.3213,M,,*66
$GPGGA,090018.40,2726.64926943,S,15304.47959030,E,1,05,2.87,160.00,M,-21.3213,M,,*61
$GPGGA,090018.50,2726.64926943,S,15304.47959030,E,1,05,2.87,160.00,M,-21.3213,M,,*60
$GPGGA,090018.60,2726.64926943,S,15304.47959030,E,1,05,2.87,160.00,M,-21.3213,M,,*63
$GPGGA,090018.70,2726.64926943,S,15304.47959030,E,1,05,2.87,160.00,M,-21.3213,M,,*62
$GPGGA,090018.80,2726.64926943,S,15304.47959030,E,1,05,2.87,160.00,M,-21.3213,M,,*6D
$GPGGA,090018.90,2726.64926943,S,15304.47959030,E,1,05,2.87,160.00,M,-21.3213,M,,*6C
$GPGGA,090019.00,2726.64926943,S,15304.47959030,E,1,05,2.87,160.00,M,-21.3213,M,,*64
$GPGGA,090019.10,2726.64926943,S,15304.47959030,E,1,05,2.87,160.00,M,-21.3213,M,,*65
$GPGGA,090019.20,2726.64926943,S,15304.47959030,E,1,05,2.87,160.00,M,-21.3213,M,,*66
$GPGGA,090019.30,2726.64926943,S,15304.47959030,E,1,05,2.87,160.00,M,-21.3213,M,,*67
$GPGGA,090019.40,2726.64926943,S,15304.47959030,E,1,05,2.87,160.00,M,-21.3213,M,,*60
$GPGGA,090019.50,2726.64926943,S,15304.47959030,E,1,05,2.87,160.00,M,-21.3213,M,,*61
$GPGGA,090019.60,2726.64926943,S,15304.47959030,E,1,05,2.87,160.00,M,-21.3213,M,,*62
$GPGGA,090019.70,2726.64926943,S,15304.47959030,E,1,05,2.87,160.00,M,-21.3213,M,,*63
$GPGGA,090019.80,2726.64926943,S,15304.47959030,E,1,05,2.87,160.00,M,-21.3213,M,,*6C
$GPGGA,090019.90,2726.64926943,S,15304.47959030,E,1,05,2.87,160.00,M,-21.3213,M,,*6D
$GPGGA,090020.00,2726.64926943,S,15304.47959030,E,1,05,2.87,160.00,M,-21.3213,M,,*6E
$GPGGA,090020.10,2726.64926943,S,15304.47959030,E,1,05,2.87,160.00,M,-21.3213,M,,*6F
$GPGGA,090020.20,2726.64926943,S,15304.47959030,E,1,05,2.87,160.00,M,-21.3213,M,,*6C
$GPGGA,090020.30,2726.64926943,S,15304.47959030,E,1,05,2.87,160.00,M,-21.3213,M,,*6D
$GPGGA,090020.40,2726.64926943,S,15304.47959030,E,1,05,2.87,160.00,M,-21.3213,M,,*6A
$GPGGA,090020.50,2726.64926943,S,15304.47959030,E,1,05,2.87,160.00,M,-21.3213,M,,*6B
$GPGGA,090020.60,2726.64926943,S,15304.47959030,E,1,05,2.87,160.00,M,-21.3213,M,,*68
$GPGGA,090020.70,2726.64926943,S,15304.47959030,E,1,05,2.87,160.00,M,-21.3213,M,,*69
$GPGGA,090020.80,2726.64926943,S,15304.47959030,E,1,05,2.87,160.00,M,-21.3213,M,,*66
$GPGGA,090020.90,2726.64926943,S,15304.47959030,E,1,05,2.87,160.00,M,-21.3213,M,,*67
$GPGGA,090021.00,2726.64926943,S,15304.47959030,E,1,05,2.87,160.00,M,-21.3213,M,,*6F
$GPGGA,090021.10,2726.64926943,S,15304.47959030,E,1,05,2.87,160.00,M,-21.3213,M,,*6E
$GPGGA,090021.20,2726.64926943,S,15304.47959030,E,1,05,2.87,160.00,M,-21.3213,M,,*6D
$GPGGA,090021.30,2726.64926943,S,15304.47959030,E,1,05,2.87,160.00,M,-21.3213,M,,*6C
$GPGGA,090021.40,2726.64926943,S,15304.47959030,E,1,05,2.87,160.00,M,-21.3213,M,,*6B
$GPGGA,090021.50,2726.64926943,S,15304.47959030,E,1,05,2.87,160.00,M,-21.3213,M,,*6A
$GPGGA,090021.60,2726.64926943,S,15304.47959030,E,1,05,2.87,160.00,M,-21.3213,M,,*69
$GPGGA,090021.70,2726.64926943,S,15304.47959030,E,1,05,2.87,160.00,M,-21.3213,M,,*68
$GPGGA,090021.80,2726.64926943,S,15304.47959030,E,1,05,2.87,160.00,M,-21.3213,M,,*67
$GPGGA,090021.90,2726.64926943,S,15304.47959030,E,1,05,2.87,160.00,M,-21.3213,M,,*66
$GPGGA,090022.00,2726.64926943,S,15304.47959030,E,1,05,2.87,160.00,M,-21.3213,M,,*6C
$GPGGA,090022.10,2726.64926943,S,15304.47959030,E,1,05,2.87,160.00,M,-21.3213,M,,*6D
$GPGGA,090022.20,2726.64926943,S,15304.47959030,E,1,05,2.87,160.00,M,-21.3213,M,,*6E
$GPGGA,090022.30,2726.64926943,S,15304.47959030,E,1,05,2.87,160.00,M,-21.3213,M,,*6F
$GPGGA,090022.40,2726.64926943,S,15304.47959030,E,1,05,2.87,160.00,M,-21.3213,M,,*68
$GPGGA,090022.50,2726.64926943,S,15304.47959030,E,1,05,2.87,160.00,M,-21.3213,M,,*69
$GPGGA,090022.60,2726.64926943,S,15304.47959030,E,1,05,2.87,160.00,M,-21.3213,M,,*6A
$GPGGA,090022.70,2726.64926943,S,15304.47959030,E,1,05,2.87,160.00,M,-21.3213,M,,*6B
$GPGGA,090022.80,2726.64926943,S,15304.47959030,E,1,05,2.87,160.00,M,-21.3213,M,,*64
$GPGGA,090022.90,2726.64926943,S,15304.47959030,E,1,05,2.87,160.00,M,-21.3213,M,,*65
$GPGGA,090023.00,2726.64926943,S,15304.47959030,E,1,05,2.87,160.00,M,-21.3213,M,,*6D
$GPGGA,090023.10,2726.64926943,S,15304.47959030,E,1,05,2.87,160.00,M,-21.3213,M,,*6C
$GPGGA,090023.20,2726.64926943,S,15304.47959030,E,1,05,2.87,160.00,M,-21.3213,M,,*6F
$GPGGA,090023.30,2726.64926943,S,15304.47959030,E,1,05,2.87,160.00,M,-21.3213,M,,*6E
$GPGGA,090023.40,2726.64926943,S,15304.47959030,E,1,05,2.87,160.00,M,-21.3213,M,,*69
$GPGGA,090023.50,2726.64926943,S,15304.47959030,E,1,05,2.87,160.00,M,-21.3213,M,,*68
$GPGGA,090023.60,2726.64926943,S,15304.47959030,E,1,05,2.87,160.00,M,-21.3213,M,,*6B
$GPGGA,090023.70,2726.64926943,S,15304.47959030,E,1,05,2.87,160.00,M,-21.3213,M,,*6A
$GPGGA,090023.80,2726.64926943,S,15304.47959030,E,1,05,2.87,160.00,M,-21.3213,M,,*65
$GPGGA,090023.90,2726.64926943,S,15304.47959030,E,1,05,2.87,160.00,M,-21.3213,M,,*64
$GPGGA,090024.00,2726.64926943,S,15304.47959030,E,1,05,2.87,160.00,M,-21.3213,M,,*6A
$GPGGA,090024.10,2726.64926943,S,15304.47959030,E,1,05,2.87,160.00,M,-21.3213,M,,*6B
$GPGGA,090024.20,2726.64926943,S,15304.47959030,E,1,05,2.87,160.00,M,-21.3213,M,,*68
$GPGGA,090024.30,2726.64926943,S,15304.47959030,E,1,05,2.87,160.00,M,-21.3213,M,,*69
$GPGGA,090024.40,2726.64926943,S,15304.47959030,E,1,05,2.87,160.00,M,-21.3213,M,,*6E
$GPGGA,090024.50,2726.64926943,S,15304.47959030,E,1,05,2.87,160.00,M,-21.3213,M,,*6F
$GPGGA,090024.60,2726.64926943,S,15304.47959030,E,1,05,2.87,160.00,M,-21.3213,M,,*6C
$GPGGA,090024.70,2726.64926943,S,15304.47959030,E,1,05,2.87,160.00,M,-21.3213,M,,*6D
$GPGGA,090024.80,2726.64926943,S,15304.47959030,E,1,05,2.87,160.00,M,-21.3213,M,,*62
$GPGGA,090024.90,2726.64926943,S,15304.47959030,E,1,05,2.87,160.00,M,-21.3213,M,,*63
$GPGGA,090025.00,2726.64926943,S,15304.47959030,E,1,05,2.87,160.00,M,-21.3213,M,,*6B
$GPGGA,090025.10,2726.64926943,S,15304.47959030,E,1,05,2.87,160.00,M,-21.3213,M,,*6A
$GPGGA,090025.20,2726.64926943,S,15304.47959030,E,1,05,2.87,160.00,M,-21.3213,M,,*69
$GPGGA,090025.30,2726.64926943,S,15304.47959030,E,1,05,2.87,160.00,M,-21.3213,M,,*68
$GPGGA,090025.40,2726.64926943,S,15304.47959030,E,1,05,2.87,160.00,M,-21.3213,M,,*6F
$GPGGA,090025.50,2726.64926943,S,15304.47959030,E,1,05,2.87,160.00,M,-21.3213,M,,*6E
$GPGGA,090025.60,2726.64926943,S,15304.47959030,E,1,05,2.87,160.00,M,-21.3213,M,,*6D
$GPGGA,090025.70,2726.64926943,S,15304.47959030,E,1,05,2.87,160.00,M,-21.3213,M,,*6C
$GPGGA,090025.80,2726.64926943,S,15304.47959030,E,1,05,2.87,160.00,M,-21.3213,M,,*63
$GPGGA,090025.90,2726.64926943,S,15304.47959030,E,1,05,2.87,160.00,M,-21.3213,M,,*62
$GPGGA,090026.00,2726.64926943,S,15304.47959030,E,1,05,2.87,160.00,M,-21.3213,M,,*68
$GPGGA,090026.10,2726.64926943,S,15304.47959030,E,1,05,2.87,160.00,M,-21.3213,M,,*69
$GPGGA,090026.20,2726.64926943,S,15304.47959030,E,1,05,2.87,160.00,M,-21.3213,M,,*6A
$GPGGA,090026.30,2726.64926943,S,15304.47959030,E,1,05,2.87,160.00,M,-21.3213,M,,*6B
$GPGGA,090026.40,2726.64926943,S,15304.47959030,E,1,05,2.87,160.00,M,-21.3213,M,,*6C
$GPGGA,090026.50,2726.64926943,S,15304.47959030,E,1,05,2.87,160.00,M,-21.3213,M,,*6D
$GPGGA,090026.60,2726.64926943,S,15304.47959030,E,1,05,2.87,160.00,M,-21.3213,M,,*6E
$GPGGA,090026.70,2726.64926943,S,15304.47959030,E,1,05,2.87,160.00,M,-21.3213,M,,*6F
$GPGGA,090026.80,2726.64926943,S,15304.47959030,E,1,05,2.87,160.00,M,-21.3213,M,,*60
$GPGGA,090026.90,2726.64926943,S,15304.47959030,E,1,05,2.87,160.00,M,-21.3213,M,,*61
$GPGGA,090027.00,2726.64926943,S,15304.47959030,E,1,05,2.87,160.00,M,-21.3213,M,,*69
$GPGGA,090027.10,2726.64926943,S,15304.47959030,E,1,05,2.87,160.00,M,-21.3213,M,,*68
$GPGGA,090027.20,2726.64926943,S,15304.47959030,E,1,05,2.87,160.00,M,-21.3213,M,,*6B
$GPGGA,090027.30,2726.64926943,S,15304.47959030,E,1,05,2.87,160.00,M,-21.3213,M,,*6A
$GPGGA,090027.40,2726.64926943,S,15304.47959030,E,1,05,2.87,160.00,M,-21.3213,M,,*6D
$GPGGA,090027.50,2726.64926943,S,15304.47959030,E,1,05,2.87,160.00,M,-21.3213,M,,*6C
$GPGGA,090027.60,2726.64926943,S,15304.47959030,E,1,05,2.87,160.00,M,-21.3213,M,,*6F
$GPGGA,090027.70,2726.64926943,S,15304.47959030,E,1,05,2.87,160.00,M,-21.3213,M,,*6E
$GPGGA,090027.80,2726.64926943,S,15304.47959030,E,1,05,2.87,160.00,M,-21.3213,M,,*61
$GPGGA,090027.90,2726.64926943,S,15304.47959030,E,1,05,2.87,160.00,M,-21.3213,M,,*60
$GPGGA,090028.00,2726.64926943,S,15304.47959030,E,1,05,2.87,160.00,M,-21.3213,M,,*66
$GPGGA,090028.10,2726.64926943,S,15304.47959030,E,1,05,2.87,160.00,M,-21.3213,M,,*67
$GPGGA,090028.20,2726.64926943,S,15304.47959030,E,1,05,2.87,160.00,M,-21.3213,M,,*64
$GPGGA,090028.30,2726.64926943,S,15304.47959030,E,1,05,2.87,160.00,M,-21.3213,M,,*65
$GPGGA,090028.40,2726.64926943,S,15304.47959030,E,1,05,2.87,160.00,M,-21.3213,M,,*62
$GPGGA,090028.50,2726.64926943,S,15304.47959030,E,1,05,2.87,160.00,M,-21.3213,M,,*63
$GPGGA,090028.60,2726.64926943,S,15304.47959030,E,1,05,2.87,160.00,M,-21.3213,M,,*60
$GPGGA,090028.70,2726.64926943,S,15304.47959030,E,1,05,2.87,160.00,M,-21.3213,M,,*61
$GPGGA,090028.80,2726.64926943,S,15304.47959030,E,1,05,2.87,160.00,M,-21.3213,M,,*6E
$GPGGA,090028.90,2726.64926943,S,15304.47959030,E,1,05,2.87,160.00,M,-21.3213,M,,*6F
$GPGGA,090029.00,2726.64926943,S,15304.47959030,E,1,05,2.87,160.00,M,-21.3213,M,,*67
$GPGGA,090029.10,2726.64926943,S,15304.47959030,E,1,05,2.87,160.00,M,-21.3213,M,,*66
$GPGGA,090029.20,2726.64926943,S,15304.47959030,E,1,05,2.87,160.00,M,-21.3213,M,,*65
$GPGGA,090029.30,2726.64926943,S,15304.47959030,E,1,05,2.87,160.00,M,-21.3213,M,,*64
$GPGGA,090029.40,2726.64926943,S,15304.47959030,E,1,05,2.87,160.00,M,-21.3213,M,,*63
$GPGGA,090029.50,2726.64926943,S,15304.47959030,E,1,05,2.87,160.00,M,-21.3213,M,,*62
$GPGGA,090029.60,2726.64926943,S,15304.47959030,E,1,05,2.87,160.00,M,-21.3213,M,,*61
$GPGGA,090029.70,2726.64926943,S,15304.47959030,E,1,05,2.87,160.00,M,-21.3213,M,,*60
$GPGGA,090029.80,2726.64926943,S,15304.47959030,E,1,05,2.87,160.00,M,-21.3213,M,,*6F
$GPGGA,090029.90,2726.64926943,S,15304.47959030,E,1,05,2.87,160.00,M,-21.3213,M,,*6E
$GPGGA,090030.00,2726.64926943,S,15304.47959030,E,1,05,2.87,160.00,M,-21.3213,M,,*6F
$GPGGA,090030.10,2726.64926943,S,15304.47959030,E,1,05,2.87,160.00,M,-21.3213,M,,*6E
$GPGGA,090030.20,2726.64926943,S,15304.47959030,E,1,05,2.87,160.00,M,-21.3213,M,,*6D
$GPGGA,090030.30,2726.64926943,S,15304.47959030,E,1,05,2.87,160.00,M,-21.3213,M,,*6C
$GPGGA,090030.40,2726.64926943,S,15304.47959030,E,1,05,2.87,160.00,M,-21.3213,M,,*6B
$GPGGA,090030.50,2726.64926943,S,15304.47959030,E,1,05,2.87,160.00,M,-21.3213,M,,*6A
$GPGGA,090030.60,2726.64926943,S,15304.47959030,E,1,05,2.87,160.00,M,-21.3213,M,,*69
$GPGGA,090030.70,2726.64926943,S,15304.47959030,E,1,05,2.87,160.00,M,-21.3213,M,,*68
$GPGGA,090030.80,2726.64926943,S,15304.47959030,E,1,05,2.87,160.00,M,-21.3213,M,,*67
$GPGGA,090030.90,2726.64926943,S,15304.47959030,E,1,05,2.87,160.00,M,-21.3213,M,,*66
$GPGGA,090031.00,2726.64926943,S,15304.47959030,E,1,05,2.87,160.00,M,-21.3213,M,,*6E
$GPGGA,090031.10,2726.64926943,S,15304.47959030,E,1,05,2.87,160.00,M,-21.3213,M,,*6F
$GPGGA,090031.20,2726.64926943,S,15304.47959030,E,1,05,2.87,160.00,M,-21.3213,M,,*6C
$GPGGA,090031.30,2726.64926943,S,15304.47959030,E,1,05,2.87,160.00,M,-21.3213,M,,*6D
$GPGGA,090031.40,2726.64926943,S,15304.47959030,E,1,05,2.87,160.00,M,-21.3213,M,,*6A
$GPGGA,090031.50,2726.64926943,S,15304.47959030,E,1,05,2.87,160.00,M,-21.3213,M,,*6B
$GPGGA,090031.60,2726.64926943,S,15304.47959030,E,1,05,2.87,160.00,M,-21.3213,M,,*68
$GPGGA,090031.70,2726.64926943,S,15304.47959030,E,1,05,2.87,160.00,M,-21.3213,M,,*69
$GPGGA,090031.80,2726.64926943,S,15304.47959030,E,1,05,2.87,160.00,M,-21.3213,M,,*66
$GPGGA,090031.90,2726.64926943,S,15304.47959030,E,1,05,2.87,160.00,M,-21.3213,M,,*67
$GPGGA,090032.00,2726.64926943,S,15304.47959030,E,1,05,2.87,160.00,M,-21.3213,M,,*6D
$GPGGA,090032.10,2726.64926943,S,15304.47959030,E,1,05,2.87,160.00,M,-21.3213,M,,*6C
$GPGGA,090032.20,2726.64926943,S,15304.47959030,E,1,05,2.87,160.00,M,-21.3213,M,,*6F
$GPGGA,090032.30,2726.64926943,S,15304.47959030,E,1,05,2.87,160.00,M,-21.3213,M,,*6E
$GPGGA,090032.40,2726.64926943,S,15304.47959030,E,1,05,2.87,160.00,M,-21.3213,M,,*69
$GPGGA,090032.50,2726.64926943,S,15304.47959030,E,1,05,2.87,160.00,M,-21.3213,M,,*68
$GPGGA,090032.60,2726.64926943,S,15304.47959030,E,1,05,2.87,160.00,M,-21.3213,M,,*6B
$GPGGA,090032.70,2726.64926943,S,15304.47959030,E,1,05,2.87,160.00,M,-21.3213,M,,*6A
$GPGGA,090032.80,2726.64926943,S,15304.47959030,E,1,05,2.87,160.00,M,-21.3213,M,,*65
$GPGGA,090032.90,2726.64926943,S,15304.47959030,E,1,05,2.87,160.00,M,-21.3213,M,,*64
$GPGGA,090033.00,2726.64926943,S,15304.47959030,E,1,05,2.87,160.00,M,-21.3213,M,,*6C
$GPGGA,090033.10,2726.64926943,S,15304.47959030,E,1,05,2.87,160.00,M,-21.3213,M,,*6D
$GPGGA,090033.20,2726.64926943,S,15304.47959030,E,1,05,2.87,160.00,M,-21.3213,M,,*6E
$GPGGA,090033.30,2726.64926943,S,15304.47959030,E,1,05,2.87,160.00,M,-21.3213,M,,*6F
$GPGGA,090033.40,2726.64926943,S,15304.47959030,E,1,05,2.87,160.00,M,-21.3213,M,,*68
$GPGGA,090033.50,2726.64926943,S,15304.47959030,E,1,05,2.87,160.00,M,-21.3213,M,,*69
$GPGGA,090033.60,2726.64926943,S,15304.47959030,E,1,05,2.87,160.00,M,-21.3213,M,,*6A
$GPGGA,090033.70,2726.64926943,S,15304.47959030,E,1,05,2.87,160.00,M,-21.3213,M,,*6B
$GPGGA,090033.80,2726.64926943,S,15304.47959030,E,1,05,2.87,160.00,M,-21.3213,M,,*64
$GPGGA,090033.90,2726.64926943,S,15304.47959030,E,1,05,2.87,160.00,M,-21.3213,M,,*65
$GPGGA,090034.00,2726.64926943,S,15304.47959030,E,1,05,2.87,160.00,M,-21.3213,M,,*6B
$GPGGA,090034.10,2726.64926943,S,15304.47959030,E,1,05,2.87,160.00,M,-21.3213,M,,*6A
$GPGGA,090034.20,2726.64926943,S,15304.47959030,E,1,05,2.87,160.00,M,-21.3213,M,,*69
$GPGGA,090034.30,2726.64926943,S,15304.47959030,E,1,05,2.87,160.00,M,-21.3213,M,,*68
$GPGGA,090034.40,2726.64926943,S,15304.47959030,E,1,05,2.87,160.00,M,-21.3213,M,,*6F
$GPGGA,090034.50,2726.64926943,S,15304.47959030,E,1,05,2.87,160.00,M,-21.3213,M,,*6E
$GPGGA,090034.60,2726.64926943,S,15304.47959030,E,1,05,2.87,160.00,M,-21.3213,M,,*6D
$GPGGA,090034.70,2726.64926943,S,15304.47959030,E,1,05,2.87,160.00,M,-21.3213,M,,*6C
$GPGGA,090034.80,2726.64926943,S,15304.47959030,E,1,05,2.87,160.00,M,-21.3213,M,,*63
$GPGGA,090034.90,2726.64926943,S,15304.47959030,E,1,05,2.87,160.00,M,-21.3213,M,,*62
$GPGGA,090035.00,2726.64926943,S,15304.47959030,E,1,05,2.87,160.00,M,-21.3213,M,,*6A
$GPGGA,090035.10,2726.64926943,S,15304.47959030,E,1,05,2.87,160.00,M,-21.3213,M,,*6B
$GPGGA,090035.20,2726.64926943,S,15304.47959030,E,1,05,2.87,160.00,M,-21.3213,M,,*68
$GPGGA,090035.30,2726.64926943,S,15304.47959030,E,1,05,2.87,160.00,M,-21.3213,M,,*69
$GPGGA,090035.40,2726.64926943,S,15304.47959030,E,1,05,2.87,160.00,M,-21.3213,M,,*6E
$GPGGA,090035.50,2726.64926943,S,15304.47959030,E,1,05,2.87,160.00,M,-21.3213,M,,*6F
$GPGGA,090035.60,2726.64926943,S,15304.47959030,E,1,05,2.87,160.00,M,-21.3213,M,,*6C
$GPGGA,090035.70,2726.64926943,S,15304.47959030,E,1,05,2.87,160.00,M,-21.3213,M,,*6D
$GPGGA,090035.80,2726.64926943,S,15304.47959030,E,1,05,2.87,160.00,M,-21.3213,M,,*62
$GPGGA,090035.90,2726.64926943,S,15304.47959030,E,1,05,2.87,160.00,M,-21.3213,M,,*63
$GPGGA,090036.00,2726.64926943,S,15304.47959030,E,1,05,2.87,160.00,M,-21.3213,M,,*69
$GPGGA,090036.10,2726.64926943,S,15304.47959030,E,1,05,2.87,160.00,M,-21.3213,M,,*68
$GPGGA,090036.20,2726.64926943,S,15304.47959030,E,1,05,2.87,160.00,M,-21.3213,M,,*6B
$GPGGA,090036.30,2726.64926943,S,15304.47959030,E,1,05,2.87,160.00,M,-21.3213,M,,*6A
$GPGGA,090036.40,2726.64926943,S,15304.47959030,E,1,05,2.87,160.00,M,-21.3213,M,,*6D
$GPGGA,090036.50,2726.64926943,S,15304.47959030,E,1,05,2.87,160.00,M,-21.3213,M,,*6C
$GPGGA,090036.60,2726.64926943,S,15304.47959030,E,1,05,2.87,160.00,M,-21.3213,M,,*6F
$GPGGA,090036.70,2726.64926943,S,15304.47959030,E,1,05,2.87,160.00,M,-21.3213,M,,*6E
$GPGGA,090036.80,2726.64926943,S,15304.47959030,E,1,05,2.87,160.00,M,-21.3213,M,,*61
$GPGGA,090036.90,2726.64926943,S,15304.47959030,E,1,05,2.87,160.00,M,-21.3213,M,,*60
$GPGGA,090037.00,2726.64926943,S,15304.47959030,E,1,05,2.87,160.00,M,-21.3213,M,,*68
$GPGGA,090037.10,2726.64926943,S,15304.47959030,E,1,05,2.87,160.00,M,-21.3213,M,,*69
$GPGGA,090037.20,2726.64926943,S,15304.47959030,E,1,05,2.87,160.00,M,-21.3213,M,,*6A
$GPGGA,090037.30,2726.64926943,S,15304.47959030,E,1,05,2.87,160.00,M,-21.3213,M,,*6B
$GPGGA,090037.40,2726.64926943,S,15304.47959030,E,1,05,2.87,160.00,M,-21.3213,M,,*6C
$GPGGA,090037.50,2726.64926943,S,15304.47959030,E,1,05,2.87,160.00,M,-21.3213,M,,*6D
$GPGGA,090037.60,2726.64926943,S,15304.47959030,E,1,05,2.87,160.00,M,-21.3213,M,,*6E
$GPGGA,090037.70,2726.64926943,S,15304.47959030,E,1,05,2.87,160.00,M,-21.3213,M,,*6F
$GPGGA,090037.80,2726.64926943,S,15304.47959030,E,1,05,2.87,160.00,M,-21.3213,M,,*60
$GPGGA,090037.90,2726.64926943,S,15304.47959030,E,1,05,2.87,160.00,M,-21.3213,M,,*61
$GPGGA,090038.00,2726.64926943,S,15304.47959030,E,1,05,2.87,160.00,M,-21.3213,M,,*67
$GPGGA,090038.10,2726.64926943,S,15304.47959030,E,1,05,2.87,160.00,M,-21.3213,M,,*66
$GPGGA,090038.20,2726.64926943,S,15304.47959030,E,1,05,2.87,160.00,M,-21.3213,M,,*65
$GPGGA,090038.30,2726.64926943,S,15304.47959030,E,1,05,2.87,160.00,M,-21.3213,M,,*64
$GPGGA,090038.40,2726.64926943,S,15304.47959030,E,1,05,2.87,160.00,M,-21.3213,M,,*63
$GPGGA,090038.50,2726.64926943,S,15304.47959030,E,1,05,2.87,160.00,M,-21.3213,M,,*62
$GPGGA,090038.60,2726.64926943,S,15304.47959030,E,1,05,2.87,160.00,M,-21.3213,M,,*61
$GPGGA,090038.70,2726.64926943,S,15304.47959030,E,1,05,2.87,160.00,M,-21.3213,M,,*60
$GPGGA,090038.80,2726.64926943,S,15304.47959030,E,1,05,2.87,160.00,M,-21.3213,M,,*6F
$GPGGA,090038.90,2726.64926943,S,15304.47959030,E,1,05,2.87,160.00,M,-21.3213,M,,*6E
$GPGGA,090039.00,2726.64926943,S,15304.47959030,E,1,05,2.87,160.00,M,-21.3213,M,,*66
$GPGGA,090039.10,2726.64926943,S,15304.47959030,E,1,05,2.87,160.00,M,-21.3213,M,,*67
$GPGGA,090039.20,2726.64926943,S,15304.47959030,E,1,05,2.87,160.00,M,-21.3213,M,,*64
$GPGGA,090039.30,2726.64926943,S,15304.47959030,E,1,05,2.87,160.00,M,-21.3213,M,,*65
$GPGGA,090039.40,2726.64926943,S,15304.47959030,E,1,05,2.87,160.00,M,-21.3213,M,,*62
$GPGGA,090039.50,2726.64926943,S,15304.47959030,E,1,05,2.87,160.00,M,-21.3213,M,,*63
$GPGGA,090039.60,2726.64926943,S,15304.47959030,E,1,05,2.87,160.00,M,-21.3213,M,,*60
$GPGGA,090039.70,2726.64926943,S,15304.47959030,E,1,05,2.87,160.00,M,-21.3213,M,,*61
$GPGGA,090039.80,2726.64926943,S,15304.47959030,E,1,05,2.87,160.00,M,-21.3213,M,,*6E
$GPGGA,090039.90,2726.64926943,S,15304.47959030,E,1,05,2.87,160.00,M,-21.3213,M,,*6F
$GPGGA,090040.00,2726.64926943,S,15304.47959030,E,1,05,2.87,160.00,M,-21.3213,M,,*68
$GPGGA,090040.10,2726.64926943,S,15304.47959030,E,1,05,2.87,160.00,M,-21.3213,M,,*69
$GPGGA,090040.20,2726.64926943,S,15304.47959030,E,1,05,2.87,160.00,M,-21.3213,M,,*6A
$GPGGA,090040.30,2726.64926943,S,15304.47959030,E,1,05,2.87,160.00,M,-21.3213,M,,*6B
$GPGGA,090040.40,2726.64926943,S,15304.47959030,E,1,05,2.87,160.00,M,-21.3213,M,,*6C
$GPGGA,090040.50,2726.64926943,S,15304.47959030,E,1,05,2.87,160.00,M,-21.3213,M,,*6D
$GPGGA,090040.60,2726.64926943,S,15304.47959030,E,1,05,2.87,160.00,M,-21.3213,M,,*6E
$GPGGA,090040.70,2726.64926943,S,15304.47959030,E,1,05,2.87,160.00,M,-21.3213,M,,*6F
$GPGGA,090040.80,2726.64926943,S,15304.47959030,E,1,05,2.87,160.00,M,-21.3213,M,,*60
$GPGGA,090040.90,2726.64926943,S,15304.47959030,E,1,05,2.87,160.00,M,-21.3213,M,,*61
$GPGGA,090041.00,2726.64926943,S,15304.47959030,E,1,05,2.87,160.00,M,-21.3213,M,,*69
$GPGGA,090041.10,2726.64926943,S,15304.47959030,E,1,05,2.87,160.00,M,-21.3213,M,,*68
$GPGGA,090041.20,2726.64926943,S,15304.47959030,E,1,05,2.87,160.00,M,-21.3213,M,,*6B
$GPGGA,090041.30,2726.64926943,S,15304.47959030,E,1,05,2.87,160.00,M,-21.3213,M,,*6A
$GPGGA,090041.40,2726.64926943,S,15304.47959030,E,1,05,2.87,160.00,M,-21.3213,M,,*6D
$GPGGA,090041.50,2726.64926943,S,15304.47959030,E,1,05,2.87,160.00,M,-21.3213,M,,*6C
$GPGGA,090041.60,2726.64926943,S,15304.47959030,E,1,05,2.87,160.00,M,-21.3213,M,,*6F
$GPGGA,090041.70,2726.64926943,S,15304.47959030,E,1,05,2.87,160.00,M,-21.3213,M,,*6E
$GPGGA,090041.80,2726.64926943,S,15304.47959030,E,1,05,2.87,160.00,M,-21.3213,M,,*61
$GPGGA,090041.90,2726.64926943,S,15304.47959030,E,1,05,2.87,160.00,M,-21.3213,M,,*60
$GPGGA,090042.00,2726.64926943,S,15304.47959030,E,1,05,2.87,160.00,M,-21.3213,M,,*6A
$GPGGA,090042.10,2726.64926943,S,15304.47959030,E,1,05,2.87,160.00,M,-21.3213,M,,*6B
$GPGGA,090042.20,2726.64926943,S,15304.47959030,E,1,05,2.87,160.00,M,-21.3213,M,,*68
$GPGGA,090042.30,2726.64926943,S,15304.47959030,E,1,05,2.87,160.00,M,-21.3213,M,,*69
$GPGGA,090042.40,2726.64926943,S,15304.47959030,E,1,05,2.87,160.00,M,-21.3213,M,,*6E
$GPGGA,090042.50,2726.64926943,S,15304.47959030,E,1,05,2.87,160.00,M,-21.3213,M,,*6F
$GPGGA,090042.60,2726.64926943,S,15304.47959030,E,1,05,2.87,160.00,M,-21.3213,M,,*6C
$GPGGA,090042.70,2726.64926943,S,15304.47959030,E,1,05,2.87,160.00,M,-21.3213,M,,*6D
$GPGGA,090042.80,2726.64926943,S,15304.47959030,E,1,05,2.87,160.00,M,-21.3213,M,,*62
$GPGGA,090042.90,2726.64926943,S,15304.47959030,E,1,05,2.87,160.00,M,-21.3213,M,,*63
$GPGGA,090043.00,2726.64926943,S,15304.47959030,E,1,05,2.87,160.00,M,-21.3213,M,,*6B
$GPGGA,090043.10,2726.64926943,S,15304.47959030,E,1,05,2.87,160.00,M,-21.3213,M,,*6A
$GPGGA,090043.20,2726.64926943,S,15304.47959030,E,1,05,2.87,160.00,M,-21.3213,M,,*69
$GPGGA,090043.30,2726.64926943,S,15304.47959030,E,1,05,2.87,160.00,M,-21.3213,M,,*68
$GPGGA,090043.40,2726.64926943,S,15304.47959030,E,1,05,2.87,160.00,M,-21.3213,M,,*6F
$GPGGA,090043.50,2726.64926943,S,15304.47959030,E,1,05,2.87,160.00,M,-21.3213,M,,*6E
$GPGGA,090043.60,2726.64926943,S,15304.47959030,E,1,05,2.87,160.00,M,-21.3213,M,,*6D
$GPGGA,090043.70,2726.64926943,S,15304.47959030,E,1,05,2.87,160.00,M,-21.3213,M,,*6C
$GPGGA,090043.80,2726.64926943,S,15304.47959030,E,1,05,2.87,160.00,M,-21.3213,M,,*63
$GPGGA,090043.90,2726.64926943,S,15304.47959030,E,1,05,2.87,160.00,M,-21.3213,M,,*62
$GPGGA,090044.00,2726.64926943,S,15304.47959030,E,1,05,2.87,160.00,M,-21.3213,M,,*6C
$GPGGA,090044.10,2726.64926943,S,15304.47959030,E,1,05,2.87,160.00,M,-21.3213,M,,*6D
$GPGGA,090044.20,2726.64926943,S,15304.47959030,E,1,05,2.87,160.00,M,-21.3213,M,,*6E
$GPGGA,090044.30,2726.64926943,S,15304.47959030,E,1,05,2.87,160.00,M,-21.3213,M,,*6F
$GPGGA,090044.40,2726.64926943,S,15304.47959030,E,1,05,2.87,160.00,M,-21.3213,M,,*68
$GPGGA,090044.50,2726.64926943,S,15304.47959030,E,1,05,2.87,160.00,M,-21.3213,M,,*69
$GPGGA,090044.60,2726.64926943,S,15304.47959030,E,1,05,2.87,160.00,M,-21.3213,M,,*6A
$GPGGA,090044.70,2726.64926943,S,15304.47959030,E,1,05,2.87,160.00,M,-21.3213,M,,*6B
$GPGGA,090044.80,2726.64926943,S,15304.47959030,E,1,05,2.87,160.00,M,-21.3213,M,,*64
$GPGGA,090044.90,2726.64926943,S,15304.47959030,E,1,05,2.87,160.00,M,-21.3213,M,,*65
$GPGGA,090045.00,2726.64926943,S,15304.47959030,E,1,05,2.87,160.00,M,-21.3213,M,,*6D
$GPGGA,090045.10,2726.64926943,S,15304.47959030,E,1,05,2.87,160.00,M,-21.3213,M,,*6C
$GPGGA,090045.20,2726.64926943,S,15304.47959030,E,1,05,2.87,160.00,M,-21.3213,M,,*6F
$GPGGA,090045.30,2726.64926943,S,15304.47959030,E,1,05,2.87,160.00,M,-21.3213,M,,*6E
$GPGGA,090045.40,2726.64926943,S,15304.47959030,E,1,05,2.87,160.00,M,-21.3213,M,,*69
$GPGGA,090045.50,2726.64926943,S,15304.47959030,E,1,05,2.87,160.00,M,-21.3213,M,,*68
$GPGGA,090045.60,2726.64926943,S,15304.47959030,E,1,05,2.87,160.00,M,-21.3213,M,,*6B
$GPGGA,090045.70,2726.64926943,S,15304.47959030,E,1,05,2.87,160.00,M,-21.3213,M,,*6A
$GPGGA,090045.80,2726.64926943,S,15304.47959030,E,1,05,2.87,160.00,M,-21.3213,M,,*65
$GPGGA,090045.90,2726.64926943,S,15304.47959030,E,1,05,2.87,160.00,M,-21.3213,M,,*64
$GPGGA,090046.00,2726.64926943,S,15304.47959030,E,1,05,2.87,160.00,M,-21.3213,M,,*6E
$GPGGA,090046.10,2726.64926943,S,15304.47959030,E,1,05,2.87,160.00,M,-21.3213,M,,*6F
$GPGGA,090046.20,2726.64926943,S,15304.47959030,E,1,05,2.87,160.00,M,-21.3213,M,,*6C
$GPGGA,090046.30,2726.64926943,S,15304.47959030,E,1,05,2.87,160.00,M,-21.3213,M,,*6D
$GPGGA,090046.40,2726.64926943,S,15304.47959030,E,1,05,2.87,160.00,M,-21.3213,M,,*6A
$GPGGA,090046.50,2726.64926943,S,15304.47959030,E,1,05,2.87,160.00,M,-21.3213,M,,*6B
$GPGGA,090046.60,2726.64926943,S,15304.47959030,E,1,05,2.87,160.00,M,-21.3213,M,,*68
$GPGGA,090046.70,2726.64926943,S,15304.47959030,E,1,05,2.87,160.00,M,-21.3213,M,,*69
$GPGGA,090046.80,2726.64926943,S,15304.47959030,E,1,05,2.87,160.00,M,-21.3213,M,,*66
$GPGGA,090046.90,2726.64926943,S,15304.47959030,E,1,05,2.87,160.00,M,-21.3213,M,,*67
$GPGGA,090047.00,2726.64926943,S,15304.47959030,E,1,05,2.87,160.00,M,-21.3213,M,,*6F
$GPGGA,090047.10,2726.64926943,S,15304.47959030,E,1,05,2.87,160.00,M,-21.3213,M,,*6E
$GPGGA,090047.20,2726.64926943,S,15304.47959030,E,1,05,2.87,160.00,M,-21.3213,M,,*6D
$GPGGA,090047.30,2726.64926943,S,15304.47959030,E,1,05,2.87,160.00,M,-21.3213,M,,*6C
$GPGGA,090047.40,2726.64926943,S,15304.47959030,E,1,05,2.87,160.00,M,-21.3213,M,,*6B
$GPGGA,090047.50,2726.64926943,S,15304.47959030,E,1,05,2.87,160.00,M,-21.3213,M,,*6A
$GPGGA,090047.60,2726.64926943,S,15304.47959030,E,1,05,2.87,160.00,M,-21.3213,M,,*69
$GPGGA,090047.70,2726.64926943,S,15304.47959030,E,1,05,2.87,160.00,M,-21.3213,M,,*68
$GPGGA,090047.80,2726.64926943,S,15304.47959030,E,1,05,2.87,160.00,M,-21.3213,M,,*67
$GPGGA,090047.90,2726.64926943,S,15304.47959030,E,1,05,2.87,160.00,M,-21.3213,M,,*66
$GPGGA,090048.00,2726.64926943,S,15304.47959030,E,1,05,2.87,160.00,M,-21.3213,M,,*60
$GPGGA,090048.10,2726.64926943,S,15304.47959030,E,1,05,2.87,160.00,M,-21.3213,M,,*61
$GPGGA,090048.20,2726.64926943,S,15304.47959030,E,1,05,2.87,160.00,M,-21.3213,M,,*62
$GPGGA,090048.30,2726.64926943,S,15304.47959030,E,1,05,2.87,160.00,M,-21.3213,M,,*63
$GPGGA,090048.40,2726.64926943,S,15304.47959030,E,1,05,2.87,160.00,M,-21.3213,M,,*64
$GPGGA,090048.50,2726.64926943,S,15304.47959030,E,1,05,2.87,160.00,M,-21.3213,M,,*65
$GPGGA,090048.60,2726.64926943,S,15304.47959030,E,1,05,2.87,160.00,M,-21.3213,M,,*66
$GPGGA,090048.70,2726.64926943,S,15304.47959030,E,1,05,2.87,160.00,M,-21.3213,M,,*67
$GPGGA,090048.80,2726.64926943,S,15304.47959030,E,1,05,2.87,160.00,M,-21.3213,M,,*68
$GPGGA,090048.90,2726.64926943,S,15304.47959030,E,1,05,2.87,160.00,M,-21.3213,M,,*69
$GPGGA,090049.00,2726.64926943,S,15304.47959030,E,1,05,2.87,160.00,M,-21.3213,M,,*61
$GPGGA,090049.10,2726.64926943,S,15304.47959030,E,1,05,2.87,160.00,M,-21.3213,M,,*60
$GPGGA,090049.20,2726.64926943,S,15304.47959030,E,1,05,2.87,160.00,M,-21.3213,M,,*63
$GPGGA,090049.30,2726.64926943,S,15304.47959030,E,1,05,2.87,160.00,M,-21.3213,M,,*62
$GPGGA,090049.40,2726.64926943,S,15304.47959030,E,1,05,2.87,160.00,M,-21.3213,M,,*65
$GPGGA,090049.50,2726.64926943,S,15304.47959030,E,1,05,2.87,160.00,M,-21.3213,M,,*64
$GPGGA,090049.60,2726.64926943,S,15304.47959030,E,1,05,2.87,160.00,M,-21.3213,M,,*67
$GPGGA,090049.70,2726.64926943,S,15304.47959030,E,1,05,2.87,160.00,M,-21.3213,M,,*66
$GPGGA,090049.80,2726.64926943,S,15304.47959030,E,1,05,2.87,160.00,M,-21.3213,M,,*69
$GPGGA,090049.90,2726.64926943,S,15304.47959030,E,1,05,2.87,160.00,M,-21.3213,M,,*68
$GPGGA,090050.00,2726.64926943,S,15304.47959030,E,1,05,2.87,160.00,M,-21.3213,M,,*69
$GPGGA,090050.10,2726.64926943,S,15304.47959030,E,1,05,2.87,160.00,M,-21.3213,M,,*68
$GPGGA,090050.20,2726.64926943,S,15304.47959030,E,1,05,2.87,160.00,M,-21.3213,M,,*6B
$GPGGA,090050.30,2726.64926943,S,15304.47959030,E,1,05,2.87,160.00,M,-21.3213,M,,*6A
$GPGGA,090050.40,2726.64926943,S,15304.47959030,E,1,05,2.87,160.00,M,-21.3213,M,,*6D
$GPGGA,090050.50,2726.64926943,S,15304.47959030,E,1,05,2.87,160.00,M,-21.3213,M,,*6C
$GPGGA,090050.60,2726.64926943,S,15304.47959030,E,1,05,2.87,160.00,M,-21.3213,M,,*6F
$GPGGA,090050.70,2726.64926943,S,15304.47959030,E,1,05,2.87,160.00,M,-21.3213,M,,*6E
$GPGGA,090050.80,2726.64926943,S,15304.47959030,E,1,05,2.87,160.00,M,-21.3213,M,,*61
$GPGGA,090050.90,2726.64926943,S,15304.47959030,E,1,05,2.87,160.00,M,-21.3213,M,,*60
$GPGGA,090051.00,2726.64926943,S,15304.47959030,E,1,05,2.87,160.00,M,-21.3213,M,,*68
$GPGGA,090051.10,2726.64926943,S,15304.47959030,E,1,05,2.87,160.00,M,-21.3213,M,,*69
$GPGGA,090051.20,2726.64926943,S,15304.47959030,E,1,05,2.87,160.00,M,-21.3213,M,,*6A
$GPGGA,090051.30,2726.64926943,S,15304.47959030,E,1,05,2.87,160.00,M,-21.3213,M,,*6B
$GPGGA,090051.40,2726.64926943,S,15304.47959030,E,1,05,2.87,160.00,M,-21.3213,M,,*6C
$GPGGA,090051.50,2726.64926943,S,15304.47959030,E,1,05,2.87,160.00,M,-21.3213,M,,*6D
$GPGGA,090051.60,2726.64926943,S,15304.47959030,E,1,05,2.87,160.00,M,-21.3213,M,,*6E
$GPGGA,090051.70,2726.64926943,S,15304.47959030,E,1,05,2.87,160.00,M,-21.3213,M,,*6F
$GPGGA,090051.80,2726.64926943,S,15304.47959030,E,1,05,2.87,160.00,M,-21.3213,M,,*60
$GPGGA,090051.90,2726.64926943,S,15304.47959030,E,1,05,2.87,160.00,M,-21.3213,M,,*61
$GPGGA,090052.00,2726.64926943,S,15304.47959030,E,1,05,2.87,160.00,M,-21.3213,M,,*6B
$GPGGA,090052.10,2726.64926943,S,15304.47959030,E,1,05,2.87,160.00,M,-21.3213,M,,*6A
$GPGGA,090052.20,2726.64926943,S,15304.47959030,E,1,05,2.87,160.00,M,-21.3213,M,,*69
$GPGGA,090052.30,2726.64926943,S,15304.47959030,E,1,05,2.87,160.00,M,-21.3213,M,,*68
$GPGGA,090052.40,2726.64926943,S,15304.47959030,E,1,05,2.87,160.00,M,-21.3213,M,,*6F
$GPGGA,090052.50,2726.64926943,S,15304.47959030,E,1,05,2.87,160.00,M,-21.3213,M,,*6E
$GPGGA,090052.60,2726.64926943,S,15304.47959030,E,1,05,2.87,160.00,M,-21.3213,M,,*6D
$GPGGA,090052.70,2726.64926943,S,15304.47959030,E,1,05,2.87,160.00,M,-21.3213,M,,*6C
$GPGGA,090052.80,2726.64926943,S,15304.47959030,E,1,05,2.87,160.00,M,-21.3213,M,,*63
$GPGGA,090052.90,2726.64926943,S,15304.47959030,E,1,05,2.87,160.00,M,-21.3213,M,,*62
$GPGGA,090053.00,2726.64926943,S,15304.47959030,E,1,05,2.87,160.00,M,-21.3213,M,,*6A
$GPGGA,090053.10,2726.64926943,S,15304.47959030,E,1,05,2.87,160.00,M,-21.3213,M,,*6B
$GPGGA,090053.20,2726.64926943,S,15304.47959030,E,1,05,2.87,160.00,M,-21.3213,M,,*68
$GPGGA,090053.30,2726.64926943,S,15304.47959030,E,1,05,2.87,160.00,M,-21.3213,M,,*69
$GPGGA,090053.40,2726.64926943,S,15304.47959030,E,1,05,2.87,160.00,M,-21.3213,M,,*6E
$GPGGA,090053.50,2726.64926943,S,15304.47959030,E,1,05,2.87,160.00,M,-21.3213,M,,*6F
$GPGGA,090053.60,2726.64926943,S,15304.47959030,E,1,05,2.87,160.00,M,-21.3213,M,,*6C
$GPGGA,090053.70,2726.64926943,S,15304.47959030,E,1,05,2.87,160.00,M,-21.3213,M,,*6D
$GPGGA,090053.80,2726.64926943,S,15304.47959030,E,1,05,2.87,160.00,M,-21.3213,M,,*62
$GPGGA,090053.90,2726.64926943,S,15304.47959030,E,1,05,2.87,160.00,M,-21.3213,M,,*63
$GPGGA,090054.00,2726.64926943,S,15304.47959030,E,1,05,2.87,160.00,M,-21.3213,M,,*6D
$GPGGA,090054.10,2726.64926943,S,15304.47959030,E,1,05,2.87,160.00,M,-21.3213,M,,*6C
$GPGGA,090054.20,2726.64926943,S,15304.47959030,E,1,05,2.87,160.00,M,-21.3213,M,,*6F
$GPGGA,090054.30,2726.64926943,S,15304.47959030,E,1,05,2.87,160.00,M,-21.3213,M,,*6E
$GPGGA,090054.40,2726.64926943,S,15304.47959030,E,1,05,2.87,160.00,M,-21.3213,M,,*69
$GPGGA,090054.50,2726.64926943,S,15304.47959030,E,1,05,2.87,160.00,M,-21.3213,M,,*68
$GPGGA,090054.60,2726.64926943,S,15304.47959030,E,1,05,2.87,160.00,M,-21.3213,M,,*6B
$GPGGA,090054.70,2726.64926943,S,15304.47959030,E,1,05,2.87,160.00,M,-21.3213,M,,*6A
$GPGGA,090054.80,2726.64926943,S,15304.47959030,E,1,05,2.87,160.00,M,-21.3213,M,,*65
$GPGGA,090054.90,2726.64926943,S,15304.47959030,E,1,05,2.87,160.00,M,-21.3213,M,,*64
$GPGGA,090055.00,2726.64926943,S,15304.47959030,E,1,05,2.87,160.00,M,-21.3213,M,,*6C
$GPGGA,090055.10,2726.64926943,S,15304.47959030,E,1,05,2.87,160.00,M,-21.3213,M,,*6D
$GPGGA,090055.20,2726.64926943,S,15304.47959030,E,1,05,2.87,160.00,M,-21.3213,M,,*6E
$GPGGA,090055.30,2726.64926943,S,15304.47959030,E,1,05,2.87,160.00,M,-21.3213,M,,*6F
$GPGGA,090055.40,2726.64926943,S,15304.47959030,E,1,05,2.87,160.00,M,-21.3213,M,,*68
$GPGGA,090055.50,2726.64926943,S,15304.47959030,E,1,05,2.87,160.00,M,-21.3213,M,,*69
$GPGGA,090055.60,2726.64926943,S,15304.47959030,E,1,05,2.87,160.00,M,-21.3213,M,,*6A
$GPGGA,090055.70,2726.64926943,S,15304.47959030,E,1,05,2.87,160.00,M,-21.3213,M,,*6B
$GPGGA,090055.80,2726.64926943,S,15304.47959030,E,1,05,2.87,160.00,M,-21.3213,M,,*64
$GPGGA,090055.90,2726.64926943,S,15304.47959030,E,1,05,2.87,160.00,M,-21.3213,M,,*65
$GPGGA,090056.00,2726.64926943,S,15304.47959030,E,1,05,2.87,160.00,M,-21.3213,M,,*6F
$GPGGA,090056.10,2726.64926943,S,15304.47959030,E,1,05,2.87,160.00,M,-21.3213,M,,*6E
$GPGGA,090056.20,2726.64926943,S,15304.47959030,E,1,05,2.87,160.00,M,-21.3213,M,,*6D
$GPGGA,090056.30,2726.64926943,S,15304.47959030,E,1,05,2.87,160.00,M,-21.3213,M,,*6C
$GPGGA,090056.40,2726.64926943,S,15304.47959030,E,1,05,2.87,160.00,M,-21.3213,M,,*6B
$GPGGA,090056.50,2726.64926943,S,15304.47959030,E,1,05,2.87,160.00,M,-21.3213,M,,*6A
$GPGGA,090056.60,2726.64926943,S,15304.47959030,E,1,05,2.87,160.00,M,-21.3213,M,,*69
$GPGGA,090056.70,2726.64926943,S,15304.47959030,E,1,05,2.87,160.00,M,-21.3213,M,,*68
$GPGGA,090056.80,2726.64926943,S,15304.47959030,E,1,05,2.87,160.00,M,-21.3213,M,,*67
$GPGGA,090056.90,2726.64926943,S,15304.47959030,E,1,05,2.87,160.00,M,-21.3213,M,,*66
$GPGGA,090057.00,2726.64926943,S,15304.47959030,E,1,05,2.87,160.00,M,-21.3213,M,,*6E
$GPGGA,090057.10,2726.64926943,S,15304.47959030,E,1,05,2.87,160.00,M,-21.3213,M,,*6F
$GPGGA,090057.20,2726.64926943,S,15304.47959030,E,1,05,2.87,160.00,M,-21.3213,M,,*6C
$GPGGA,090057.30,2726.64926943,S,15304.47959030,E,1,05,2.87,160.00,M,-21.3213,M,,*6D
$GPGGA,090057.40,2726.64926943,S,15304.47959030,E,1,05,2.87,160.00,M,-21.3213,M,,*6A
$GPGGA,090057.50,2726.64926943,S,15304.47959030,E,1,05,2.87,160.00,M,-21.3213,M,,*6B
$GPGGA,090057.60,2726.64926943,S,15304.47959030,E,1,05,2.87,160.00,M,-21.3213,M,,*68
$GPGGA,090057.70,2726.64926943,S,15304.47959030,E,1,05,2.87,160.00,M,-21.3213,M,,*69
$GPGGA,090057.80,2726.64926943,S,15304.47959030,E,1,05,2.87,160.00,M,-21.3213,M,,*66
$GPGGA,090057.90,2726.64926943,S,15304.47959030,E,1,05,2.87,160.00,M,-21.3213,M,,*67
$GPGGA,090058.00,2726.64926943,S,15304.47959030,E,1,05,2.87,160.00,M,-21.3213,M,,*61
$GPGGA,090058.10,2726.64926943,S,15304.47959030,E,1,05,2.87,160.00,M,-21.3213,M,,*60
$GPGGA,090058.20,2726.64926943,S,15304.47959030,E,1,05,2.87,160.00,M,-21.3213,M,,*63
$GPGGA,090058.30,2726.64926943,S,15304.47959030,E,1,05,2.87,160.00,M,-21.3213,M,,*62
$GPGGA,090058.40,2726.64926943,S,15304.47959030,E,1,05,2.87,160.00,M,-21.3213,M,,*65
$GPGGA,090058.50,2726.64926943,S,15304.47959030,E,1,05,2.87,160.00,M,-21.3213,M,,*64
$GPGGA,090058.60,2726.64926943,S,15304.47959030,E,1,05,2.87,160.00,M,-21.3213,M,,*67
$GPGGA,090058.70,2726.64926943,S,15304.47959030,E,1,05,2.87,160.00,M,-21.3213,M,,*66
$GPGGA,090058.80,2726.64926943,S,15304.47959030,E,1,05,2.87,160.00,M,-21.3213,M,,*69
$GPGGA,090058.90,2726.64926943,S,15304.47959030,E,1,05,2.87,160.00,M,-21.3213,M,,*68
$GPGGA,090059.00,2726.64926943,S,15304.47959030,E,1,05,2.87,160.00,M,-21.3213,M,,*60
$GPGGA,090059.10,2726.64926943,S,15304.47959030,E,1,05,2.87,160.00,M,-21.3213,M,,*61
$GPGGA,090059.20,2726.64926943,S,15304.47959030,E,1,05,2.87,160.00,M,-21.3213,M,,*62
$GPGGA,090059.30,2726.64926943,S,15304.47959030,E,1,05,2.87,160.00,M,-21.3213,M,,*63
$GPGGA,090059.40,2726.64926943,S,15304.47959030,E,1,05,2.87,160.00,M,-21.3213,M,,*64
$GPGGA,090059.50,2726.64926943,S,15304.47959030,E,1,05,2.87,160.00,M,-21.3213,M,,*65
$GPGGA,090059.60,2726.64926943,S,15304.47959030,E,1,05,2.87,160.00,M,-21.3213,M,,*66
$GPGGA,090059.70,2726.64926943,S,15304.47959030,E,1,05,2.87,160.00,M,-21.3213,M,,*67
$GPGGA,090059.80,2726.64926943,S,15304.47959030,E,1,05,2.87,160.00,M,-21.3213,M,,*68
$GPGGA,090059.90,2726.64926943,S,15304.47959030,E,1,05,2.87,160.00,M,-21.3213,M,,*69
$GPGGA,090100.00,2726.64926943,S,15304.47959030,E,1,05,2.87,160.00,M,-21.3213,M,,*6D
$GPGGA,090100.10,2726.64926943,S,15304.47959030,E,1,05,2.87,160.00,M,-21.3213,M,,*6C
$GPGGA,090100.20,2726.64926943,S,15304.47959030,E,1,05,2.87,160.00,M,-21.3213,M,,*6F
$GPGGA,090100.30,2726.64926943,S,15304.47959030,E,1,05,2.87,160.00,M,-21.3213,M,,*6E
$GPGGA,090100.40,2726.64926943,S,15304.47959030,E,1,05,2.87,160.00,M,-21.3213,M,,*69
$GPGGA,090100.50,2726.64926943,S,15304.47959030,E,1,05,2.87,160.00,M,-21.3213,M,,*68
$GPGGA,090100.60,2726.64926943,S,15304.47959030,E,1,05,2.87,160.00,M,-21.3213,M,,*6B
$GPGGA,090100.70,2726.64926943,S,15304.47959030,E,1,05,2.87,160.00,M,-21.3213,M,,*6A
$GPGGA,090100.80,2726.64926943,S,15304.47959030,E,1,05,2.87,160.00,M,-21.3213,M,,*65
$GPGGA,090100.90,2726.64926943,S,15304.47959030,E,1,05,2.87,160.00,M,-21.3213,M,,*64
$GPGGA,090101.00,2726.64926943,S,15304.47959030,E,1,05,2.87,160.00,M,-21.3213,M,,*6C
$GPGGA,090101.10,2726.64926943,S,15304.47959030,E,1,05,2.87,160.00,M,-21.3213,M,,*6D
$GPGGA,090101.20,2726.64926943,S,15304.47959030,E,1,05,2.87,160.00,M,-21.3213,M,,*6E
$GPGGA,090101.30,2726.64926943,S,15304.47959030,E,1,05,2.87,160.00,M,-21.3213,M,,*6F
$GPGGA,090101.40,2726.64926943,S,15304.47959030,E,1,05,2.87,160.00,M,-21.3213,M,,*68
$GPGGA,090101.50,2726.64926943,S,15304.47959030,E,1,05,2.87,160.00,M,-21.3213,M,,*69
$GPGGA,090101.60,2726.64926943,S,15304.47959030,E,1,05,2.87,160.00,M,-21.3213,M,,*6A
$GPGGA,090101.70,2726.64926943,S,15304.47959030,E,1,05,2.87,160.00,M,-21.3213,M,,*6B
$GPGGA,090101.80,2726.64926943,S,15304.47959030,E,1,05,2.87,160.00,M,-21.3213,M,,*64
$GPGGA,090101.90,2726.64926943,S,15304.47959030,E,1,05,2.87,160.00,M,-21.3213,M,,*65
$GPGGA,090102.00,2726.64926943,S,15304.47959030,E,1,05,2.87,160.00,M,-21.3213,M,,*6F
$GPGGA,090102.10,2726.64926943,S,15304.47959030,E,1,05,2.87,160.00,M,-21.3213,M,,*6E
$GPGGA,090102.20,2726.64926943,S,15304.47959030,E,1,05,2.87,160.00,M,-21.3213,M,,*6D
$GPGGA,090102.30,2726.64926943,S,15304.47959030,E,1,05,2.87,160.00,M,-21.3213,M,,*6C
$GPGGA,090102.40,2726.64926943,S,15304.47959030,E,1,05,2.87,160.00,M,-21.3213,M,,*6B
$GPGGA,090102.50,2726.64926943,S,15304.47959030,E,1,05,2.87,160.00,M,-21.3213,M,,*6A
$GPGGA,090102.60,2726.64926943,S,15304.47959030,E,1,05,2.87,160.00,M,-21.3213,M,,*69
$GPGGA,090102.70,2726.64926943,S,15304.47959030,E,1,05,2.87,160.00,M,-21.3213,M,,*68
$GPGGA,090102.80,2726.64926943,S,15304.47959030,E,1,05,2.87,160.00,M,-21.3213,M,,*67
$GPGGA,090102.90,2726.64926943,S,15304.47959030,E,1,05,2.87,160.00,M,-21.3213,M,,*66
$GPGGA,090103.00,2726.64926943,S,15304.47959030,E,1,05,2.87,160.00,M,-21.3213,M,,*6E
$GPGGA,090103.10,2726.64926943,S,15304.47959030,E,1,05,2.87,160.00,M,-21.3213,M,,*6F
$GPGGA,090103.20,2726.64926943,S,15304.47959030,E,1,05,2.87,160.00,M,-21.3213,M,,*6C
$GPGGA,090103.30,2726.64926943,S,15304.47959030,E,1,05,2.87,160.00,M,-21.3213,M,,*6D
$GPGGA,090103.40,2726.64926943,S,15304.47959030,E,1,05,2.87,160.00,M,-21.3213,M,,*6A
$GPGGA,090103.50,2726.64926943,S,15304.47959030,E,1,05,2.87,160.00,M,-21.3213,M,,*6B
$GPGGA,090103.60,2726.64926943,S,15304.47959030,E,1,05,2.87,160.00,M,-21.3213,M,,*68
$GPGGA,090103.70,2726.64926943,S,15304.47959030,E,1,05,2.87,160.00,M,-21.3213,M,,*69
$GPGGA,090103.80,2726.64926943,S,15304.47959030,E,1,05,2.87,160.00,M,-21.3213,M,,*66
$GPGGA,090103.90,2726.64926943,S,15304.47959030,E,1,05,2.87,160.00,M,-21.3213,M,,*67
$GPGGA,090104.00,2726.64926943,S,15304.47959030,E,1,05,2.87,160.00,M,-21.3213,M,,*69
$GPGGA,090104.10,2726.64926943,S,15304.47959030,E,1,05,2.87,160.00,M,-21.3213,M,,*68
$GPGGA,090104.20,2726.64926943,S,15304.47959030,E,1,05,2.87,160.00,M,-21.3213,M,,*6B
$GPGGA,090104.30,2726.64926943,S,15304.47959030,E,1,05,2.87,160.00,M,-21.3213,M,,*6A
$GPGGA,090104.40,2726.64926943,S,15304.47959030,E,1,05,2.87,160.00,M,-21.3213,M,,*6D
$GPGGA,090104.50,2726.64926943,S,15304.47959030,E,1,05,2.87,160.00,M,-21.3213,M,,*6C
$GPGGA,090104.60,2726.64926943,S,15304.47959030,E,1,05,2.87,160.00,M,-21.3213,M,,*6F
$GPGGA,090104.70,2726.64926943,S,15304.47959030,E,1,05,2.87,160.00,M,-21.3213,M,,*6E
$GPGGA,090104.80,2726.64926943,S,15304.47959030,E,1,05,2.87,160.00,M,-21.3213,M,,*61
$GPGGA,090104.90,2726.64926943,S,15304.47959030,E,1,05,2.87,160.00,M,-21.3213,M,,*60
$GPGGA,090105.00,2726.64926943,S,15304.47959030,E,1,05,2.87,160.00,M,-21.3213,M,,*68
$GPGGA,090105.10,2726.64926943,S,15304.47959030,E,1,05,2.87,160.00,M,-21.3213,M,,*69
$GPGGA,090105.20,2726.64926943,S,15304.47959030,E,1,05,2.87,160.00,M,-21.3213,M,,*6A
$GPGGA,090105.30,2726.64926943,S,15304.47959030,E,1,05,2.87,160.00,M,-21.3213,M,,*6B
$GPGGA,090105.40,2726.64926943,S,15304.47959030,E,1,05,2.87,160.00,M,-21.3213,M,,*6C
$GPGGA,090105.50,2726.64926943,S,15304.47959030,E,1,05,2.87,160.00,M,-21.3213,M,,*6D
$GPGGA,090105.60,2726.64926943,S,15304.47959030,E,1,05,2.87,160.00,M,-21.3213,M,,*6E
$GPGGA,090105.70,2726.64926943,S,15304.47959030,E,1,05,2.87,160.00,M,-21.3213,M,,*6F
$GPGGA,090105.80,2726.64926943,S,15304.47959030,E,1,05,2.87,160.00,M,-21.3213,M,,*60
$GPGGA,090105.90,2726.64926943,S,15304.47959030,E,1,05,2.87,160.00,M,-21.3213,M,,*61
$GPGGA,090106.00,2726.64926943,S,15304.47959030,E,1,05,2.87,160.00,M,-21.3213,M,,*6B
$GPGGA,090106.10,2726.64926943,S,15304.47959030,E,1,05,2.87,160.00,M,-21.3213,M,,*6A
$GPGGA,090106.20,2726.64926943,S,15304.47959030,E,1,05,2.87,160.00,M,-21.3213,M,,*69
$GPGGA,090106.30,2726.64926943,S,15304.47959030,E,1,05,2.87,160.00,M,-21.3213,M,,*68
$GPGGA,090106.40,2726.64926943,S,15304.47959030,E,1,05,2.87,160.00,M,-21.3213,M,,*6F
$GPGGA,090106.50,2726.64926943,S,15304.47959030,E,1,05,2.87,160.00,M,-21.3213,M,,*6E
$GPGGA,090106.60,2726.64926943,S,15304.47959030,E,1,05,2.87,160.00,M,-21.3213,M,,*6D
$GPGGA,090106.70,2726.64926943,S,15304.47959030,E,1,05,2.87,160.00,M,-21.3213,M,,*6C
$GPGGA,090106.80,2726.64926943,S,15304.47959030,E,1,05,2.87,160.00,M,-21.3213,M,,*63
$GPGGA,090106.90,2726.64926943,S,15304.47959030,E,1,05,2.87,160.00,M,-21.3213,M,,*62
$GPGGA,090107.00,2726.64926943,S,15304.47959030,E,1,05,2.87,160.00,M,-21.3213,M,,*6A
$GPGGA,090107.10,2726.64926943,S,15304.47959030,E,1,05,2.87,160.00,M,-21.3213,M,,*6B
$GPGGA,090107.20,2726.64926943,S,15304.47959030,E,1,05,2.87,160.00,M,-21.3213,M,,*68
$GPGGA,090107.30,2726.64926943,S,15304.47959030,E,1,05,2.87,160.00,M,-21.3213,M,,*69
$GPGGA,090107.40,2726.64926943,S,15304.47959030,E,1,05,2.87,160.00,M,-21.3213,M,,*6E
$GPGGA,090107.50,2726.64926943,S,15304.47959030,E,1,05,2.87,160.00,M,-21.3213,M,,*6F
$GPGGA,090107.60,2726.64926943,S,15304.47959030,E,1,05,2.87,160.00,M,-21.3213,M,,*6C
$GPGGA,090107.70,2726.64926943,S,15304.47959030,E,1,05,2.87,160.00,M,-21.3213,M,,*6D
$GPGGA,090107.80,2726.64926943,S,15304.47959030,E,1,05,2.87,160.00,M,-21.3213,M,,*62
$GPGGA,090107.90,2726.64926943,S,15304.47959030,E,1,05,2.87,160.00,M,-21.3213,M,,*63
$GPGGA,090108.00,2726.64926943,S,15304.47959030,E,1,05,2.87,160.00,M,-21.3213,M,,*65
$GPGGA,090108.10,2726.64926943,S,15304.47959030,E,1,05,2.87,160.00,M,-21.3213,M,,*64
$GPGGA,090108.20,2726.64926943,S,15304.47959030,E,1,05,2.87,160.00,M,-21.3213,M,,*67
$GPGGA,090108.30,2726.64926943,S,15304.47959030,E,1,05,2.87,160.00,M,-21.3213,M,,*66
$GPGGA,090108.40,2726.64926943,S,15304.47959030,E,1,05,2.87,160.00,M,-21.3213,M,,*61
$GPGGA,090108.50,2726.64926943,S,15304.47959030,E,1,05,2.87,160.00,M,-21.3213,M,,*60
$GPGGA,090108.60,2726.64926943,S,15304.47959030,E,1,05,2.87,160.00,M,-21.3213,M,,*63
$GPGGA,090108.70,2726.64926943,S,15304.47959030,E,1,05,2.87,160.00,M,-21.3213,M,,*62
$GPGGA,090108.80,2726.64926943,S,15304.47959030,E,1,05,2.87,160.00,M,-21.3213,M,,*6D
$GPGGA,090108.90,2726.64926943,S,15304.47959030,E,1,05,2.87,160.00,M,-21.3213,M,,*6C
$GPGGA,090109.00,2726.64926943,S,15304.47959030,E,1,05,2.87,160.00,M,-21.3213,M,,*64
$GPGGA,090109.10,2726.64926943,S,15304.47959030,E,1,05,2.87,160.00,M,-21.3213,M,,*65
$GPGGA,090109.20,2726.64926943,S,15304.47959030,E,1,05,2.87,160.00,M,-21.3213,M,,*66
$GPGGA,090109.30,2726.64926943,S,15304.47959030,E,1,05,2.87,160.00,M,-21.3213,M,,*67
$GPGGA,090109.40,2726.64926943,S,15304.47959030,E,1,05,2.87,160.00,M,-21.3213,M,,*60
$GPGGA,090109.50,2726.64926943,S,15304.47959030,E,1,05,2.87,160.00,M,-21.3213,M,,*61
$GPGGA,090109.60,2726.64926943,S,15304.47959030,E,1,05,2.87,160.00,M,-21.3213,M,,*62
$GPGGA,090109.70,2726.64926943,S,15304.47959030,E,1,05,2.87,160.00,M,-21.3213,M,,*63
$GPGGA,090109.80,2726.64926943,S,15304.47959030,E,1,05,2.87,160.00,M,-21.3213,M,,*6C
$GPGGA,090109.90,2726.64926943,S,15304.47959030,E,1,05,2.87,160.00,M,-21.3213,M,,*6D
$GPGGA,090110.00,2726.64926943,S,15304.47959030,E,1,05,2.87,160.00,M,-21.3213,M,,*6C
$GPGGA,090110.10,2726.64926943,S,15304.47959030,E,1,05,2.87,160.00,M,-21.3213,M,,*6D
$GPGGA,090110.20,2726.64926943,S,15304.47959030,E,1,05,2.87,160.00,M,-21.3213,M,,*6E
$GPGGA,090110.30,2726.64926943,S,15304.47959030,E,1,05,2.87,160.00,M,-21.3213,M,,*6F
$GPGGA,090110.40,2726.64926943,S,15304.47959030,E,1,05,2.87,160.00,M,-21.3213,M,,*68
