$GPGGA,090000.00,2752.88297332,S,13714.06352314,E,1,05,2.87,160.00,M,-21.3213,M,,*62
$GPGGA,090000.10,2752.88297332,S,13714.06352314,E,1,05,2.87,160.00,M,-21.3213,M,,*63
$GPGGA,090000.20,2752.88297332,S,13714.06352314,E,1,05,2.87,160.00,M,-21.3213,M,,*60
$GPGGA,090000.30,2752.88297332,S,13714.06352314,E,1,05,2.87,160.00,M,-21.3213,M,,*61
$GPGGA,090000.40,2752.88297332,S,13714.06352314,E,1,05,2.87,160.00,M,-21.3213,M,,*66
$GPGGA,090000.50,2752.88297332,S,13714.06352314,E,1,05,2.87,160.00,M,-21.3213,M,,*67
$GPGGA,090000.60,2752.88297332,S,13714.06352314,E,1,05,2.87,160.00,M,-21.3213,M,,*64
$GPGGA,090000.70,2752.88297332,S,13714.06352314,E,1,05,2.87,160.00,M,-21.3213,M,,*65
$GPGGA,090000.80,2752.88297332,S,13714.06352314,E,1,05,2.87,160.00,M,-21.3213,M,,*6A
$GPGGA,090000.90,2752.88297332,S,13714.06352314,E,1,05,2.87,160.00,M,-21.3213,M,,*6B
$GPGGA,090001.00,2752.88297332,S,13714.06352314,E,1,05,2.87,160.00,M,-21.3213,M,,*63
$GPGGA,090001.10,2752.88297332,S,13714.06352314,E,1,05,2.87,160.00,M,-21.3213,M,,*62
$GPGGA,090001.20,2752.88297332,S,13714.06352314,E,1,05,2.87,160.00,M,-21.3213,M,,*61
$GPGGA,090001.30,2752.88297332,S,13714.06352314,E,1,05,2.87,160.00,M,-21.3213,M,,*60
$GPGGA,090001.40,2752.88297332,S,13714.06352314,E,1,05,2.87,160.00,M,-21.3213,M,,*67
$GPGGA,090001.50,2752.88297332,S,13714.06352314,E,1,05,2.87,160.00,M,-21.3213,M,,*66
$GPGGA,090001.60,2752.88297332,S,13714.06352314,E,1,05,2.87,160.00,M,-21.3213,M,,*65
$GPGGA,090001.70,2752.88297332,S,13714.06352314,E,1,05,2.87,160.00,M,-21.3213,M,,*64
$GPGGA,090001.80,2752.88297332,S,13714.06352314,E,1,05,2.87,160.00,M,-21.3213,M,,*6B
$GPGGA,090001.90,2752.88297332,S,13714.06352314,E,1,05,2.87,160.00,M,-21.3213,M,,*6A
$GPGGA,090002.00,2752.88297332,S,13714.06352314,E,1,05,2.87,160.00,M,-21.3213,M,,*60
$GPGGA,090002.10,2752.88297332,S,13714.06352314,E,1,05,2.87,160.00,M,-21.3213,M,,*61
$GPGGA,090002.20,2752.88297332,S,13714.06352314,E,1,05,2.87,160.00,M,-21.3213,M,,*62
$GPGGA,090002.30,2752.88297332,S,13714.06352314,E,1,05,2.87,160.00,M,-21.3213,M,,*63
$GPGGA,090002.40,2752.88297332,S,13714.06352314,E,1,05,2.87,160.00,M,-21.3213,M,,*64
$GPGGA,090002.50,2752.88297332,S,13714.06352314,E,1,05,2.87,160.00,M,-21.3213,M,,*65
$GPGGA,090002.60,2752.88297332,S,13714.06352314,E,1,05,2.87,160.00,M,-21.3213,M,,*66
$GPGGA,090002.70,2752.88297332,S,13714.06352314,E,1,05,2.87,160.00,M,-21.3213,M,,*67
$GPGGA,090002.80,2752.88297332,S,13714.06352314,E,1,05,2.87,160.00,M,-21.3213,M,,*68
$GPGGA,090002.90,2752.88297332,S,13714.06352314,E,1,05,2.87,160.00,M,-21.3213,M,,*69
$GPGGA,090003.00,2752.88297332,S,13714.06352314,E,1,05,2.87,160.00,M,-21.3213,M,,*61
$GPGGA,090003.10,2752.88297332,S,13714.06352314,E,1,05,2.87,160.00,M,-21.3213,M,,*60
$GPGGA,090003.20,2752.88297332,S,13714.06352314,E,1,05,2.87,160.00,M,-21.3213,M,,*63
$GPGGA,090003.30,2752.88297332,S,13714.06352314,E,1,05,2.87,160.00,M,-21.3213,M,,*62
$GPGGA,090003.40,2752.88297332,S,13714.06352314,E,1,05,2.87,160.00,M,-21.3213,M,,*65
$GPGGA,090003.50,2752.88297332,S,13714.06352314,E,1,05,2.87,160.00,M,-21.3213,M,,*64
$GPGGA,090003.60,2752.88297332,S,13714.06352314,E,1,05,2.87,160.00,M,-21.3213,M,,*67
$GPGGA,090003.70,2752.88297332,S,13714.06352314,E,1,05,2.87,160.00,M,-21.3213,M,,*66
$GPGGA,090003.80,2752.88297332,S,13714.06352314,E,1,05,2.87,160.00,M,-21.3213,M,,*69
$GPGGA,090003.90,2752.88297332,S,13714.06352314,E,1,05,2.87,160.00,M,-21.3213,M,,*68
$GPGGA,090004.00,2752.88297332,S,13714.06352314,E,1,05,2.87,160.00,M,-21.3213,M,,*66
$GPGGA,090004.10,2752.88297332,S,13714.06352314,E,1,05,2.87,160.00,M,-21.3213,M,,*67
$GPGGA,090004.20,2752.88297332,S,13714.06352314,E,1,05,2.87,160.00,M,-21.3213,M,,*64
$GPGGA,090004.30,2752.88297332,S,13714.06352314,E,1,05,2.87,160.00,M,-21.3213,M,,*65
$GPGGA,090004.40,2752.88297332,S,13714.06352314,E,1,05,2.87,160.00,M,-21.3213,M,,*62
$GPGGA,090004.50,2752.88297332,S,13714.06352314,E,1,05,2.87,160.00,M,-21.3213,M,,*63
$GPGGA,090004.60,2752.88297332,S,13714.06352314,E,1,05,2.87,160.00,M,-21.3213,M,,*60
$GPGGA,090004.70,2752.88297332,S,13714.06352314,E,1,05,2.87,160.00,M,-21.3213,M,,*61
$GPGGA,090004.80,2752.88297332,S,13714.06352314,E,1,05,2.87,160.00,M,-21.3213,M,,*6E
$GPGGA,090004.90,2752.88297332,S,13714.06352314,E,1,05,2.87,160.00,M,-21.3213,M,,*6F
$GPGGA,090005.00,2752.88297332,S,13714.06352314,E,1,05,2.87,160.00,M,-21.3213,M,,*67
$GPGGA,090005.10,2752.88297332,S,13714.06352314,E,1,05,2.87,160.00,M,-21.3213,M,,*66
$GPGGA,090005.20,2752.88297332,S,13714.06352314,E,1,05,2.87,160.00,M,-21.3213,M,,*65
$GPGGA,090005.30,2752.88297332,S,13714.06352314,E,1,05,2.87,160.00,M,-21.3213,M,,*64
$GPGGA,090005.40,2752.88297332,S,13714.06352314,E,1,05,2.87,160.00,M,-21.3213,M,,*63
$GPGGA,090005.50,2752.88297332,S,13714.06352314,E,1,05,2.87,160.00,M,-21.3213,M,,*62
$GPGGA,090005.60,2752.88297332,S,13714.06352314,E,1,05,2.87,160.00,M,-21.3213,M,,*61
$GPGGA,090005.70,2752.88297332,S,13714.06352314,E,1,05,2.87,160.00,M,-21.3213,M,,*60
$GPGGA,090005.80,2752.88297332,S,13714.06352314,E,1,05,2.87,160.00,M,-21.3213,M,,*6F
$GPGGA,090005.90,2752.88297332,S,13714.06352314,E,1,05,2.87,160.00,M,-21.3213,M,,*6E
$GPGGA,090006.00,2752.88297332,S,13714.06352314,E,1,05,2.87,160.00,M,-21.3213,M,,*64
$GPGGA,090006.10,2752.88297332,S,13714.06352314,E,1,05,2.87,160.00,M,-21.3213,M,,*65
$GPGGA,090006.20,2752.88297332,S,13714.06352314,E,1,05,2.87,160.00,M,-21.3213,M,,*66
$GPGGA,090006.30,2752.88297332,S,13714.06352314,E,1,05,2.87,160.00,M,-21.3213,M,,*67
$GPGGA,090006.40,2752.88297332,S,13714.06352314,E,1,05,2.87,160.00,M,-21.3213,M,,*60
$GPGGA,090006.50,2752.88297332,S,13714.06352314,E,1,05,2.87,160.00,M,-21.3213,M,,*61
$GPGGA,090006.60,2752.88297332,S,13714.06352314,E,1,05,2.87,160.00,M,-21.3213,M,,*62
$GPGGA,090006.70,2752.88297332,S,13714.06352314,E,1,05,2.87,160.00,M,-21.3213,M,,*63
$GPGGA,090006.80,2752.88297332,S,13714.06352314,E,1,05,2.87,160.00,M,-21.3213,M,,*6C
$GPGGA,090006.90,2752.88297332,S,13714.06352314,E,1,05,2.87,160.00,M,-21.3213,M,,*6D
$GPGGA,090007.00,2752.88297332,S,13714.06352314,E,1,05,2.87,160.00,M,-21.3213,M,,*65
$GPGGA,090007.10,2752.88297332,S,13714.06352314,E,1,05,2.87,160.00,M,-21.3213,M,,*64
$GPGGA,090007.20,2752.88297332,S,13714.06352314,E,1,05,2.87,160.00,M,-21.3213,M,,*67
$GPGGA,090007.30,2752.88297332,S,13714.06352314,E,1,05,2.87,160.00,M,-21.3213,M,,*66
$GPGGA,090007.40,2752.88297332,S,13714.06352314,E,1,05,2.87,160.00,M,-21.3213,M,,*61
$GPGGA,090007.50,2752.88297332,S,13714.06352314,E,1,05,2.87,160.00,M,-21.3213,M,,*60
$GPGGA,090007.60,2752.88297332,S,13714.06352314,E,1,05,2.87,160.00,M,-21.3213,M,,*63
$GPGGA,090007.70,2752.88297332,S,13714.06352314,E,1,05,2.87,160.00,M,-21.3213,M,,*62
$GPGGA,090007.80,2752.88297332,S,13714.06352314,E,1,05,2.87,160.00,M,-21.3213,M,,*6D
$GPGGA,090007.90,2752.88297352,S,13714.06349659,E,1,05,2.87,160.00,M,-21.3213,M,,*6C
$GPGGA,090008.00,2752.88297427,S,13714.06339824,E,1,05,2.87,160.00,M,-21.3213,M,,*6C
$GPGGA,090008.10,2752.88297511,S,13714.06328875,E,1,05,2.87,160.00,M,-21.3213,M,,*6D
$GPGGA,090008.20,2752.88297661,S,13714.06309272,E,1,05,2.87,160.00,M,-21.3213,M,,*64
$GPGGA,090008.30,2752.88297891,S,13714.06279185,E,1,05,2.87,160.00,M,-21.3213,M,,*69
$GPGGA,090008.40,2752.88298158,S,13714.06244223,E,1,05,2.87,160.00,M,-21.3213,M,,*6C
$GPGGA,090008.50,2752.88298469,S,13714.06203471,E,1,05,2.87,160.00,M,-21.3213,M,,*68
$GPGGA,090008.60,2752.88298766,S,13714.06164657,E,1,05,2.87,160.00,M,-21.3213,M,,*63
$GPGGA,090008.70,2752.88299181,S,13714.06110298,E,1,05,2.87,160.00,M,-21.3213,M,,*68
$GPGGA,090008.80,2752.88299586,S,13714.06057252,E,1,05,2.87,160.00,M,-21.3213,M,,*60
$GPGGA,090008.90,2752.88300051,S,13714.05996379,E,1,05,2.87,160.00,M,-21.3213,M,,*60
$GPGGA,090009.00,2752.88300580,S,13714.05927224,E,1,05,2.87,160.00,M,-21.3213,M,,*62
$GPGGA,090009.10,2752.88301174,S,13714.05849449,E,1,05,2.87,160.00,M,-21.3213,M,,*69
$GPGGA,090009.20,2752.88301836,S,13714.05762828,E,1,05,2.87,160.00,M,-21.3213,M,,*68
$GPGGA,090009.30,2752.88302483,S,13714.05678077,E,1,05,2.87,160.00,M,-21.3213,M,,*60
$GPGGA,090009.40,2752.88303196,S,13714.05584769,E,1,05,2.87,160.00,M,-21.3213,M,,*6F
$GPGGA,090009.50,2752.88303888,S,13714.05494110,E,1,05,2.87,160.00,M,-21.3213,M,,*60
$GPGGA,090009.60,2752.88304731,S,13714.05383858,E,1,05,2.87,160.00,M,-21.3213,M,,*6D
$GPGGA,090009.70,2752.88305549,S,13714.05276686,E,1,05,2.87,160.00,M,-21.3213,M,,*66
$GPGGA,090009.80,2752.88306430,S,13714.05161332,E,1,05,2.87,160.00,M,-21.3213,M,,*6A
$GPGGA,090009.90,2752.88307371,S,13714.05038151,E,1,05,2.87,160.00,M,-21.3213,M,,*62
$GPGGA,090010.00,2752.88308372,S,13714.04907174,E,1,05,2.87,160.00,M,-21.3213,M,,*6C
$GPGGA,090010.10,2752.88309430,S,13714.04768560,E,1,05,2.87,160.00,M,-21.3213,M,,*6B
$GPGGA,090010.20,2752.88310455,S,13714.04634444,E,1,05,2.87,160.00,M,-21.3213,M,,*6C
$GPGGA,090010.30,2752.88311626,S,13714.04481104,E,1,05,2.87,160.00,M,-21.3213,M,,*67
$GPGGA,090010.40,2752.88312760,S,13714.04332660,E,1,05,2.87,160.00,M,-21.3213,M,,*6A
$GPGGA,090010.50,2752.88313947,S,13714.04177270,E,1,05,2.87,160.00,M,-21.3213,M,,*67
$GPGGA,090010.60,2752.88315186,S,13714.04015050,E,1,05,2.87,160.00,M,-21.3213,M,,*62
$GPGGA,090010.70,2752.88316476,S,13714.03846104,E,1,05,2.87,160.00,M,-21.3213,M,,*63
$GPGGA,090010.80,2752.88317909,S,13714.03658382,E,1,05,2.87,160.00,M,-21.3213,M,,*65
$GPGGA,090010.90,2752.88319300,S,13714.03476241,E,1,05,2.87,160.00,M,-21.3213,M,,*69
$GPGGA,090011.00,2752.88320741,S,13714.03287620,E,1,05,2.87,160.00,M,-21.3213,M,,*61
$GPGGA,090011.10,2752.88322137,S,13714.03104747,E,1,05,2.87,160.00,M,-21.3213,M,,*6D
$GPGGA,090011.20,2752.88323675,S,13714.02903334,E,1,05,2.87,160.00,M,-21.3213,M,,*60
$GPGGA,090011.30,2752.88325262,S,13714.02695584,E,1,05,2.87,160.00,M,-21.3213,M,,*68
$GPGGA,090011.40,2752.88326896,S,13714.02481528,E,1,05,2.87,160.00,M,-21.3213,M,,*6C
$GPGGA,090011.50,2752.88328578,S,13714.02261190,E,1,05,2.87,160.00,M,-21.3213,M,,*61
$GPGGA,090011.60,2752.88330308,S,13714.02034589,E,1,05,2.87,160.00,M,-21.3213,M,,*64
$GPGGA,090011.70,2752.88332086,S,13714.01801739,E,1,05,2.87,160.00,M,-21.3213,M,,*66
$GPGGA,090011.80,2752.88333819,S,13714.01574836,E,1,05,2.87,160.00,M,-21.3213,M,,*69
$GPGGA,090011.90,2752.88335691,S,13714.01329520,E,1,05,2.87,160.00,M,-21.3213,M,,*64
$GPGGA,090012.00,2752.88337612,S,13714.01077980,E,1,05,2.87,160.00,M,-21.3213,M,,*69
$GPGGA,090012.10,2752.88339486,S,13714.00832406,E,1,05,2.87,160.00,M,-21.3213,M,,*62
$GPGGA,090012.20,2752.88341501,S,13714.00568431,E,1,05,2.87,160.00,M,-21.3213,M,,*66
$GPGGA,090012.30,2752.88343563,S,13714.00298241,E,1,05,2.87,160.00,M,-21.3213,M,,*68
$GPGGA,090012.40,2752.88345580,S,13714.00034026,E,1,05,2.87,160.00,M,-21.3213,M,,*63
$GPGGA,090012.50,2752.88347737,S,13713.99751413,E,1,05,2.87,160.00,M,-21.3213,M,,*6F
$GPGGA,090012.60,2752.88349941,S,13713.99462589,E,1,05,2.87,160.00,M,-21.3213,M,,*6C
$GPGGA,090012.70,2752.88352100,S,13713.99179741,E,1,05,2.87,160.00,M,-21.3213,M,,*63
$GPGGA,090012.80,2752.88354399,S,13713.98878498,E,1,05,2.87,160.00,M,-21.3213,M,,*66
$GPGGA,090012.90,2752.88356652,S,13713.98583231,E,1,05,2.87,160.00,M,-21.3213,M,,*6B
$GPGGA,090013.00,2752.88359045,S,13713.98269569,E,1,05,2.87,160.00,M,-21.3213,M,,*65
$GPGGA,090013.10,2752.88361393,S,13713.97961883,E,1,05,2.87,160.00,M,-21.3213,M,,*62
$GPGGA,090013.20,2752.88363881,S,13713.97635802,E,1,05,2.87,160.00,M,-21.3213,M,,*6C
$GPGGA,090013.30,2752.88366323,S,13713.97315698,E,1,05,2.87,160.00,M,-21.3213,M,,*61
$GPGGA,090013.40,2752.88368905,S,13713.96977199,E,1,05,2.87,160.00,M,-21.3213,M,,*6F
$GPGGA,090013.50,2752.88371440,S,13713.96645018,E,1,05,2.87,160.00,M,-21.3213,M,,*6C
$GPGGA,090013.60,2752.88374116,S,13713.96294106,E,1,05,2.87,160.00,M,-21.3213,M,,*6A
$GPGGA,090013.70,2752.88376747,S,13713.95949171,E,1,05,2.87,160.00,M,-21.3213,M,,*63
$GPGGA,090013.80,2752.88379426,S,13713.95598028,E,1,05,2.87,160.00,M,-21.3213,M,,*6A
$GPGGA,090013.90,2752.88382244,S,13713.95228488,E,1,05,2.87,160.00,M,-21.3213,M,,*6F
$GPGGA,090014.00,2752.88385017,S,13713.94864926,E,1,05,2.87,160.00,M,-21.3213,M,,*68
$GPGGA,090014.10,2752.88387837,S,13713.94495155,E,1,05,2.87,160.00,M,-21.3213,M,,*6F
$GPGGA,090014.20,2752.88390797,S,13713.94106989,E,1,05,2.87,160.00,M,-21.3213,M,,*69
$GPGGA,090014.30,2752.88393711,S,13713.93724799,E,1,05,2.87,160.00,M,-21.3213,M,,*6B
$GPGGA,090014.40,2752.88396672,S,13713.93336401,E,1,05,2.87,160.00,M,-21.3213,M,,*68
$GPGGA,090014.50,2752.88399681,S,13713.92941793,E,1,05,2.87,160.00,M,-21.3213,M,,*69
$GPGGA,090014.60,2752.88402829,S,13713.92528790,E,1,05,2.87,160.00,M,-21.3213,M,,*63
$GPGGA,090014.70,2752.88405932,S,13713.92121764,E,1,05,2.87,160.00,M,-21.3213,M,,*68
$GPGGA,090014.80,2752.88409082,S,13713.91708528,E,1,05,2.87,160.00,M,-21.3213,M,,*6D
$GPGGA,090014.90,2752.88412279,S,13713.91289084,E,1,05,2.87,160.00,M,-21.3213,M,,*6F
$GPGGA,090015.00,2752.88415523,S,13713.90863431,E,1,05,2.87,160.00,M,-21.3213,M,,*6D
$GPGGA,090015.10,2752.88418815,S,13713.90431568,E,1,05,2.87,160.00,M,-21.3213,M,,*6F
$GPGGA,090015.20,2752.88422246,S,13713.89981310,E,1,05,2.87,160.00,M,-21.3213,M,,*6E
$GPGGA,090015.30,2752.88425631,S,13713.89537029,E,1,05,2.87,160.00,M,-21.3213,M,,*64
$GPGGA,090015.40,2752.88429064,S,13713.89086539,E,1,05,2.87,160.00,M,-21.3213,M,,*62
$GPGGA,090015.50,2752.88432543,S,13713.88629840,E,1,05,2.87,160.00,M,-21.3213,M,,*68
$GPGGA,090015.60,2752.88436070,S,13713.88166931,E,1,05,2.87,160.00,M,-21.3213,M,,*61
$GPGGA,090015.70,2752.88439643,S,13713.87697814,E,1,05,2.87,160.00,M,-21.3213,M,,*69
$GPGGA,090015.80,2752.88443264,S,13713.87222487,E,1,05,2.87,160.00,M,-21.3213,M,,*66
$GPGGA,090015.90,2752.88446932,S,13713.86740951,E,1,05,2.87,160.00,M,-21.3213,M,,*6C
$GPGGA,090016.00,2752.88450647,S,13713.86253206,E,1,05,2.87,160.00,M,-21.3213,M,,*62
$GPGGA,090016.10,2752.88454408,S,13713.85759252,E,1,05,2.87,160.00,M,-21.3213,M,,*63
$GPGGA,090016.20,2752.88458217,S,13713.85259089,E,1,05,2.87,160.00,M,-21.3213,M,,*65
$GPGGA,090016.30,2752.88461980,S,13713.84764902,E,1,05,2.87,160.00,M,-21.3213,M,,*6B
$GPGGA,090016.40,2752.88465882,S,13713.84252321,E,1,05,2.87,160.00,M,-21.3213,M,,*60
$GPGGA,090016.50,2752.88469832,S,13713.83733530,E,1,05,2.87,160.00,M,-21.3213,M,,*65
$GPGGA,090016.60,2752.88473829,S,13713.83208530,E,1,05,2.87,160.00,M,-21.3213,M,,*6A
$GPGGA,090016.70,2752.88477872,S,13713.82677321,E,1,05,2.87,160.00,M,-21.3213,M,,*6A
$GPGGA,090016.80,2752.88481962,S,13713.82139903,E,1,05,2.87,160.00,M,-21.3213,M,,*6B
$GPGGA,090016.90,2752.88486007,S,13713.81608462,E,1,05,2.87,160.00,M,-21.3213,M,,*6B
$GPGGA,090017.00,2752.88490191,S,13713.81058625,E,1,05,2.87,160.00,M,-21.3213,M,,*68
$GPGGA,090017.10,2752.88494422,S,13713.80502580,E,1,05,2.87,160.00,M,-21.3213,M,,*67
$GPGGA,090017.20,2752.88498700,S,13713.79940325,E,1,05,2.87,160.00,M,-21.3213,M,,*6E
$GPGGA,090017.30,2752.88502932,S,13713.79384047,E,1,05,2.87,160.00,M,-21.3213,M,,*67
$GPGGA,090017.40,2752.88507304,S,13713.78809374,E,1,05,2.87,160.00,M,-21.3213,M,,*66
$GPGGA,090017.50,2752.88511722,S,13713.78228492,E,1,05,2.87,160.00,M,-21.3213,M,,*66
$GPGGA,090017.60,2752.88516095,S,13713.77653587,E,1,05,2.87,160.00,M,-21.3213,M,,*6B
$GPGGA,090017.70,2752.88520607,S,13713.77060286,E,1,05,2.87,160.00,M,-21.3213,M,,*62
$GPGGA,090017.80,2752.88525166,S,13713.76460776,E,1,05,2.87,160.00,M,-21.3213,M,,*67
$GPGGA,090017.90,2752.88529679,S,13713.75867244,E,1,05,2.87,160.00,M,-21.3213,M,,*6F
$GPGGA,090018.00,2752.88534331,S,13713.75255316,E,1,05,2.87,160.00,M,-21.3213,M,,*61
$GPGGA,090018.10,2752.88538937,S,13713.74649365,E,1,05,2.87,160.00,M,-21.3213,M,,*6C
$GPGGA,090018.20,2752.88543683,S,13713.74025018,E,1,05,2.87,160.00,M,-21.3213,M,,*66
$GPGGA,090018.30,2752.88548383,S,13713.73406649,E,1,05,2.87,160.00,M,-21.3213,M,,*69
$GPGGA,090018.40,2752.88553223,S,13713.72769884,E,1,05,2.87,160.00,M,-21.3213,M,,*6B
$GPGGA,090018.50,2752.88558016,S,13713.72139097,E,1,05,2.87,160.00,M,-21.3213,M,,*6C
$GPGGA,090018.60,2752.88562949,S,13713.71489914,E,1,05,2.87,160.00,M,-21.3213,M,,*6A
$GPGGA,090018.70,2752.88567836,S,13713.70846708,E,1,05,2.87,160.00,M,-21.3213,M,,*6A
$GPGGA,090018.80,2752.88572862,S,13713.70185107,E,1,05,2.87,160.00,M,-21.3213,M,,*6F
$GPGGA,090018.90,2752.88577842,S,13713.69529482,E,1,05,2.87,160.00,M,-21.3213,M,,*6B
$GPGGA,090019.00,2752.88582868,S,13713.68867649,E,1,05,2.87,160.00,M,-21.3213,M,,*62
$GPGGA,090019.10,2752.88588034,S,13713.68187420,E,1,05,2.87,160.00,M,-21.3213,M,,*62
$GPGGA,090019.20,2752.88593154,S,13713.67513169,E,1,05,2.87,160.00,M,-21.3213,M,,*62
$GPGGA,090019.30,2752.88598321,S,13713.66832708,E,1,05,2.87,160.00,M,-21.3213,M,,*66
$GPGGA,090019.40,2752.88603626,S,13713.66133852,E,1,05,2.87,160.00,M,-21.3213,M,,*6A
$GPGGA,090019.50,2752.88608886,S,13713.65440972,E,1,05,2.87,160.00,M,-21.3213,M,,*65
$GPGGA,090019.60,2752.88614192,S,13713.64741884,E,1,05,2.87,160.00,M,-21.3213,M,,*6C
$GPGGA,090019.70,2752.88619545,S,13713.64036587,E,1,05,2.87,160.00,M,-21.3213,M,,*67
$GPGGA,090019.80,2752.88625037,S,13713.63312894,E,1,05,2.87,160.00,M,-21.3213,M,,*6A
$GPGGA,090019.90,2752.88630483,S,13713.62595178,E,1,05,2.87,160.00,M,-21.3213,M,,*67
$GPGGA,090020.00,2752.88635975,S,13713.61871253,E,1,05,2.87,160.00,M,-21.3213,M,,*6B
$GPGGA,090020.10,2752.88641513,S,13713.61141119,E,1,05,2.87,160.00,M,-21.3213,M,,*62
$GPGGA,090020.20,2752.88647099,S,13713.60404776,E,1,05,2.87,160.00,M,-21.3213,M,,*6A
$GPGGA,090020.30,2752.88652823,S,13713.59650037,E,1,05,2.87,160.00,M,-21.3213,M,,*6D
$GPGGA,090020.40,2752.88658501,S,13713.58901276,E,1,05,2.87,160.00,M,-21.3213,M,,*60
$GPGGA,090020.50,2752.88664225,S,13713.58146305,E,1,05,2.87,160.00,M,-21.3213,M,,*61
$GPGGA,090020.60,2752.88669996,S,13713.57385125,E,1,05,2.87,160.00,M,-21.3213,M,,*6E
$GPGGA,090020.70,2752.88675813,S,13713.56617736,E,1,05,2.87,160.00,M,-21.3213,M,,*65
$GPGGA,090020.80,2752.88681676,S,13713.55844138,E,1,05,2.87,160.00,M,-21.3213,M,,*6F
$GPGGA,090020.90,2752.88687586,S,13713.55064330,E,1,05,2.87,160.00,M,-21.3213,M,,*64
$GPGGA,090021.00,2752.88693542,S,13713.54278314,E,1,05,2.87,160.00,M,-21.3213,M,,*69
$GPGGA,090021.10,2752.88699545,S,13713.53486088,E,1,05,2.87,160.00,M,-21.3213,M,,*63
$GPGGA,090021.20,2752.88705593,S,13713.52687653,E,1,05,2.87,160.00,M,-21.3213,M,,*6D
$GPGGA,090021.30,2752.88711688,S,13713.51883009,E,1,05,2.87,160.00,M,-21.3213,M,,*60
$GPGGA,090021.40,2752.88717830,S,13713.51072156,E,1,05,2.87,160.00,M,-21.3213,M,,*61
$GPGGA,090021.50,2752.88724017,S,13713.50255094,E,1,05,2.87,160.00,M,-21.3213,M,,*64
$GPGGA,090021.60,2752.88730251,S,13713.49431822,E,1,05,2.87,160.00,M,-21.3213,M,,*6B
$GPGGA,090021.70,2752.88736438,S,13713.48614528,E,1,05,2.87,160.00,M,-21.3213,M,,*66
$GPGGA,090021.80,2752.88742765,S,13713.47778838,E,1,05,2.87,160.00,M,-21.3213,M,,*69
$GPGGA,090021.90,2752.88749141,S,13713.46936898,E,1,05,2.87,160.00,M,-21.3213,M,,*6C
$GPGGA,090022.00,2752.88755584,S,13713.46087386,E,1,05,2.87,160.00,M,-21.3213,M,,*61
$GPGGA,090022.10,2752.88762055,S,13713.45239635,E,1,05,2.87,160.00,M,-21.3213,M,,*64
$GPGGA,090022.20,2752.88768599,S,13713.44404170,E,1,05,2.87,160.00,M,-21.3213,M,,*67
$GPGGA,090022.30,2752.88775918,S,13713.43556537,E,1,05,2.87,160.00,M,-21.3213,M,,*69
$GPGGA,090022.40,2752.88786001,S,13713.42708967,E,1,05,2.87,160.00,M,-21.3213,M,,*62
$GPGGA,090022.50,2752.88802167,S,13713.41861501,E,1,05,2.87,160.00,M,-21.3213,M,,*6E
$GPGGA,090022.60,2752.88820919,S,13713.41014063,E,1,05,2.87,160.00,M,-21.3213,M,,*67
$GPGGA,090022.70,2752.88840310,S,13713.40166630,E,1,05,2.87,160.00,M,-21.3213,M,,*66
$GPGGA,090022.80,2752.88859858,S,13713.39319198,E,1,05,2.87,160.00,M,-21.3213,M,,*67
$GPGGA,090022.90,2752.88879444,S,13713.38471767,E,1,05,2.87,160.00,M,-21.3213,M,,*6B
$GPGGA,090023.00,2752.88898758,S,13713.37636518,E,1,05,2.87,160.00,M,-21.3213,M,,*66
$GPGGA,090023.10,2752.88918354,S,13713.36789087,E,1,05,2.87,160.00,M,-21.3213,M,,*61
$GPGGA,090023.20,2752.88937950,S,13713.35941655,E,1,05,2.87,160.00,M,-21.3213,M,,*61
$GPGGA,090023.30,2752.88957546,S,13713.35094224,E,1,05,2.87,160.00,M,-21.3213,M,,*6E
$GPGGA,090023.40,2752.88977140,S,13713.34246792,E,1,05,2.87,160.00,M,-21.3213,M,,*6D
$GPGGA,090023.50,2752.88996734,S,13713.33399361,E,1,05,2.87,160.00,M,-21.3213,M,,*6A
$GPGGA,090023.60,2752.89016327,S,13713.32551929,E,1,05,2.87,160.00,M,-21.3213,M,,*6A
$GPGGA,090023.70,2752.89035919,S,13713.31704497,E,1,05,2.87,160.00,M,-21.3213,M,,*64
$GPGGA,090023.80,2752.89055510,S,13713.30857065,E,1,05,2.87,160.00,M,-21.3213,M,,*69
$GPGGA,090023.90,2752.89074819,S,13713.30021816,E,1,05,2.87,160.00,M,-21.3213,M,,*6A
$GPGGA,090024.00,2752.89094408,S,13713.29174384,E,1,05,2.87,160.00,M,-21.3213,M,,*6F
$GPGGA,090024.10,2752.89113997,S,13713.28326953,E,1,05,2.87,160.00,M,-21.3213,M,,*6F
$GPGGA,090024.20,2752.89133585,S,13713.27479521,E,1,05,2.87,160.00,M,-21.3213,M,,*6A
$GPGGA,090024.30,2752.89153172,S,13713.26632089,E,1,05,2.87,160.00,M,-21.3213,M,,*6A
$GPGGA,090024.40,2752.89172758,S,13713.25784656,E,1,05,2.87,160.00,M,-21.3213,M,,*6B
$GPGGA,090024.50,2752.89192343,S,13713.24937224,E,1,05,2.87,160.00,M,-21.3213,M,,*6C
$GPGGA,090024.60,2752.89211927,S,13713.24089792,E,1,05,2.87,160.00,M,-21.3213,M,,*6B
$GPGGA,090024.70,2752.89231229,S,13713.23254543,E,1,05,2.87,160.00,M,-21.3213,M,,*66
$GPGGA,090024.80,2752.89250811,S,13713.22407110,E,1,05,2.87,160.00,M,-21.3213,M,,*6C
$GPGGA,090024.90,2752.89270393,S,13713.21559678,E,1,05,2.87,160.00,M,-21.3213,M,,*6E
$GPGGA,090025.00,2752.89289974,S,13713.20712246,E,1,05,2.87,160.00,M,-21.3213,M,,*66
$GPGGA,090025.10,2752.89309554,S,13713.19864813,E,1,05,2.87,160.00,M,-21.3213,M,,*6E
$GPGGA,090025.20,2752.89329133,S,13713.19017381,E,1,05,2.87,160.00,M,-21.3213,M,,*66
$GPGGA,090025.30,2752.89348711,S,13713.18169948,E,1,05,2.87,160.00,M,-21.3213,M,,*60
$GPGGA,090025.40,2752.89368288,S,13713.17322516,E,1,05,2.87,160.00,M,-21.3213,M,,*65
$GPGGA,090025.50,2752.89387583,S,13713.16487266,E,1,05,2.87,160.00,M,-21.3213,M,,*60
$GPGGA,090025.60,2752.89407159,S,13713.15639833,E,1,05,2.87,160.00,M,-21.3213,M,,*61
$GPGGA,090025.70,2752.89426733,S,13713.14792400,E,1,05,2.87,160.00,M,-21.3213,M,,*64
$GPGGA,090025.80,2752.89446307,S,13713.13944968,E,1,05,2.87,160.00,M,-21.3213,M,,*6F
$GPGGA,090025.90,2752.89465880,S,13713.13097535,E,1,05,2.87,160.00,M,-21.3213,M,,*68
$GPGGA,090026.00,2752.89485452,S,13713.12250102,E,1,05,2.87,160.00,M,-21.3213,M,,*67
$GPGGA,090026.10,2752.89505024,S,13713.11402669,E,1,05,2.87,160.00,M,-21.3213,M,,*62
$GPGGA,090026.20,2752.89524594,S,13713.10555236,E,1,05,2.87,160.00,M,-21.3213,M,,*60
$GPGGA,090026.30,2752.89544164,S,13713.09707803,E,1,05,2.87,160.00,M,-21.3213,M,,*6D
$GPGGA,090026.40,2752.89563451,S,13713.08872553,E,1,05,2.87,160.00,M,-21.3213,M,,*68
$GPGGA,090026.50,2752.89583019,S,13713.08025119,E,1,05,2.87,160.00,M,-21.3213,M,,*6F
$GPGGA,090026.60,2752.89602586,S,13713.07177686,E,1,05,2.87,160.00,M,-21.3213,M,,*6D
$GPGGA,090026.70,2752.89622152,S,13713.06330253,E,1,05,2.87,160.00,M,-21.3213,M,,*6F
$GPGGA,090026.80,2752.89641717,S,13713.05482820,E,1,05,2.87,160.00,M,-21.3213,M,,*61
$GPGGA,090026.90,2752.89661281,S,13713.04635386,E,1,05,2.87,160.00,M,-21.3213,M,,*60
$GPGGA,090027.00,2752.89680845,S,13713.03787953,E,1,05,2.87,160.00,M,-21.3213,M,,*68
$GPGGA,090027.10,2752.89700407,S,13713.02940520,E,1,05,2.87,160.00,M,-21.3213,M,,*66
$GPGGA,090027.20,2752.89719688,S,13713.02105269,E,1,05,2.87,160.00,M,-21.3213,M,,*6B
$GPGGA,090027.30,2752.89739249,S,13713.01257835,E,1,05,2.87,160.00,M,-21.3213,M,,*65
$GPGGA,090027.40,2752.89758808,S,13713.00410402,E,1,05,2.87,160.00,M,-21.3213,M,,*66
$GPGGA,090027.50,2752.89778368,S,13712.99562968,E,1,05,2.87,160.00,M,-21.3213,M,,*6C
$GPGGA,090027.60,2752.89797926,S,13712.98715534,E,1,05,2.87,160.00,M,-21.3213,M,,*68
$GPGGA,090027.70,2752.89817483,S,13712.97868101,E,1,05,2.87,160.00,M,-21.3213,M,,*64
$GPGGA,090027.80,2752.89837040,S,13712.97020667,E,1,05,2.87,160.00,M,-21.3213,M,,*61
$GPGGA,090027.90,2752.89856595,S,13712.96173233,E,1,05,2.87,160.00,M,-21.3213,M,,*69
$GPGGA,090028.00,2752.89876150,S,13712.95325799,E,1,05,2.87,160.00,M,-21.3213,M,,*67
$GPGGA,090028.10,2752.89895423,S,13712.94490548,E,1,05,2.87,160.00,M,-21.3213,M,,*6C
$GPGGA,090028.20,2752.89914976,S,13712.93643114,E,1,05,2.87,160.00,M,-21.3213,M,,*6C
$GPGGA,090028.30,2752.89934528,S,13712.92795680,E,1,05,2.87,160.00,M,-21.3213,M,,*69
$GPGGA,090028.40,2752.89954080,S,13712.91948246,E,1,05,2.87,160.00,M,-21.3213,M,,*6C
$GPGGA,090028.50,2752.89973630,S,13712.91100812,E,1,05,2.87,160.00,M,-21.3213,M,,*6A
$GPGGA,090028.60,2752.89993180,S,13712.90253378,E,1,05,2.87,160.00,M,-21.3213,M,,*68
$GPGGA,090028.70,2752.90012728,S,13712.89405944,E,1,05,2.87,160.00,M,-21.3213,M,,*6D
$GPGGA,090028.80,2752.90032276,S,13712.88558509,E,1,05,2.87,160.00,M,-21.3213,M,,*63
$GPGGA,090028.90,2752.90051542,S,13712.87723258,E,1,05,2.87,160.00,M,-21.3213,M,,*65
$GPGGA,090029.00,2752.90071088,S,13712.86875823,E,1,05,2.87,160.00,M,-21.3213,M,,*67
$GPGGA,090029.10,2752.90090633,S,13712.86028389,E,1,05,2.87,160.00,M,-21.3213,M,,*64
$GPGGA,090029.20,2752.90110178,S,13712.85180955,E,1,05,2.87,160.00,M,-21.3213,M,,*6D
$GPGGA,090029.30,2752.90129722,S,13712.84333520,E,1,05,2.87,160.00,M,-21.3213,M,,*6A
$GPGGA,090029.40,2752.90149266,S,13712.83486086,E,1,05,2.87,160.00,M,-21.3213,M,,*69
$GPGGA,090029.50,2752.90168814,S,13712.82638651,E,1,05,2.87,160.00,M,-21.3213,M,,*6E
$GPGGA,090029.60,2752.90188381,S,13712.81791218,E,1,05,2.87,160.00,M,-21.3213,M,,*6C
$GPGGA,090029.70,2752.90207742,S,13712.80955970,E,1,05,2.87,160.00,M,-21.3213,M,,*60
$GPGGA,090029.80,2752.90227696,S,13712.80108554,E,1,05,2.87,160.00,M,-21.3213,M,,*6F
$GPGGA,090029.90,2752.90248913,S,13712.79261193,E,1,05,2.87,160.00,M,-21.3213,M,,*60
$GPGGA,090030.00,2752.90274777,S,13712.78414012,E,1,05,2.87,160.00,M,-21.3213,M,,*6F
$GPGGA,090030.10,2752.90305477,S,13712.77566989,E,1,05,2.87,160.00,M,-21.3213,M,,*6A
$GPGGA,090030.20,2752.90337524,S,13712.76720004,E,1,05,2.87,160.00,M,-21.3213,M,,*62
$GPGGA,090030.30,2752.90369904,S,13712.75873028,E,1,05,2.87,160.00,M,-21.3213,M,,*62
$GPGGA,090030.40,2752.90402365,S,13712.75026053,E,1,05,2.87,160.00,M,-21.3213,M,,*66
$GPGGA,090030.50,2752.90434845,S,13712.74179079,E,1,05,2.87,160.00,M,-21.3213,M,,*69
$GPGGA,090030.60,2752.90466863,S,13712.73344281,E,1,05,2.87,160.00,M,-21.3213,M,,*67
$GPGGA,090030.70,2752.90499348,S,13712.72497307,E,1,05,2.87,160.00,M,-21.3213,M,,*63
$GPGGA,090030.80,2752.90531832,S,13712.71650333,E,1,05,2.87,160.00,M,-21.3213,M,,*64
$GPGGA,090030.90,2752.90564315,S,13712.70803359,E,1,05,2.87,160.00,M,-21.3213,M,,*6E
$GPGGA,090031.00,2752.90596798,S,13712.69956385,E,1,05,2.87,160.00,M,-21.3213,M,,*62
$GPGGA,090031.10,2752.90629280,S,13712.69109411,E,1,05,2.87,160.00,M,-21.3213,M,,*60
$GPGGA,090031.20,2752.90661761,S,13712.68262437,E,1,05,2.87,160.00,M,-21.3213,M,,*6E
$GPGGA,090031.30,2752.90694241,S,13712.67415462,E,1,05,2.87,160.00,M,-21.3213,M,,*6B
$GPGGA,090031.40,2752.90726253,S,13712.66580664,E,1,05,2.87,160.00,M,-21.3213,M,,*6F
$GPGGA,090031.50,2752.90758732,S,13712.65733689,E,1,05,2.87,160.00,M,-21.3213,M,,*6F
$GPGGA,090031.60,2752.90791209,S,13712.64886714,E,1,05,2.87,160.00,M,-21.3213,M,,*61
$GPGGA,090031.70,2752.90823686,S,13712.64039740,E,1,05,2.87,160.00,M,-21.3213,M,,*68
$GPGGA,090031.80,2752.90856162,S,13712.63192765,E,1,05,2.87,160.00,M,-21.3213,M,,*68
$GPGGA,090031.90,2752.90888637,S,13712.62345790,E,1,05,2.87,160.00,M,-21.3213,M,,*6E
$GPGGA,090032.00,2752.90921111,S,13712.61498815,E,1,05,2.87,160.00,M,-21.3213,M,,*63
$GPGGA,090032.10,2752.90953584,S,13712.60651840,E,1,05,2.87,160.00,M,-21.3213,M,,*69
$GPGGA,090032.20,2752.90985589,S,13712.59817041,E,1,05,2.87,160.00,M,-21.3213,M,,*63
$GPGGA,090032.30,2752.91018061,S,13712.58970065,E,1,05,2.87,160.00,M,-21.3213,M,,*6A
$GPGGA,090032.40,2752.91050531,S,13712.58123090,E,1,05,2.87,160.00,M,-21.3213,M,,*65
$GPGGA,090032.50,2752.91083001,S,13712.57276115,E,1,05,2.87,160.00,M,-21.3213,M,,*6C
$GPGGA,090032.60,2752.91115470,S,13712.56429139,E,1,05,2.87,160.00,M,-21.3213,M,,*60
$GPGGA,090032.70,2752.91147938,S,13712.55582163,E,1,05,2.87,160.00,M,-21.3213,M,,*6B
$GPGGA,090032.80,2752.91180405,S,13712.54735188,E,1,05,2.87,160.00,M,-21.3213,M,,*66
$GPGGA,090032.90,2752.91212871,S,13712.53888212,E,1,05,2.87,160.00,M,-21.3213,M,,*6E
$GPGGA,090033.00,2752.91244870,S,13712.53053412,E,1,05,2.87,160.00,M,-21.3213,M,,*6C
$GPGGA,090033.10,2752.91277334,S,13712.52206436,E,1,05,2.87,160.00,M,-21.3213,M,,*63
$GPGGA,090033.20,2752.91309798,S,13712.51359460,E,1,05,2.87,160.00,M,-21.3213,M,,*61
$GPGGA,090033.30,2752.91342261,S,13712.50512484,E,1,05,2.87,160.00,M,-21.3213,M,,*6E
$GPGGA,090033.40,2752.91374723,S,13712.49665508,E,1,05,2.87,160.00,M,-21.3213,M,,*61
$GPGGA,090033.50,2752.91407184,S,13712.48818532,E,1,05,2.87,160.00,M,-21.3213,M,,*64
$GPGGA,090033.60,2752.91439644,S,13712.47971556,E,1,05,2.87,160.00,M,-21.3213,M,,*62
$GPGGA,090033.70,2752.91472103,S,13712.47124579,E,1,05,2.87,160.00,M,-21.3213,M,,*6D
$GPGGA,090033.80,2752.91504095,S,13712.46289779,E,1,05,2.87,160.00,M,-21.3213,M,,*6B
$GPGGA,090033.90,2752.91536553,S,13712.45442802,E,1,05,2.87,160.00,M,-21.3213,M,,*65
$GPGGA,090034.00,2752.91569009,S,13712.44595825,E,1,05,2.87,160.00,M,-21.3213,M,,*64
$GPGGA,090034.10,2752.91601465,S,13712.43748849,E,1,05,2.87,160.00,M,-21.3213,M,,*69
$GPGGA,090034.20,2752.91633920,S,13712.42901872,E,1,05,2.87,160.00,M,-21.3213,M,,*6D
$GPGGA,090034.30,2752.91666374,S,13712.42054895,E,1,05,2.87,160.00,M,-21.3213,M,,*67
$GPGGA,090034.40,2752.91698828,S,13712.41207918,E,1,05,2.87,160.00,M,-21.3213,M,,*60
$GPGGA,090034.50,2752.91731280,S,13712.40360941,E,1,05,2.87,160.00,M,-21.3213,M,,*66
$GPGGA,090034.60,2752.91763265,S,13712.39526140,E,1,05,2.87,160.00,M,-21.3213,M,,*6A
$GPGGA,090034.70,2752.91795716,S,13712.38679163,E,1,05,2.87,160.00,M,-21.3213,M,,*6A
$GPGGA,090034.80,2752.91828166,S,13712.37832185,E,1,05,2.87,160.00,M,-21.3213,M,,*6B
$GPGGA,090034.90,2752.91860615,S,13712.36985208,E,1,05,2.87,160.00,M,-21.3213,M,,*6F
$GPGGA,090035.00,2752.91893063,S,13712.36138230,E,1,05,2.87,160.00,M,-21.3213,M,,*69
$GPGGA,090035.10,2752.91925510,S,13712.35291253,E,1,05,2.87,160.00,M,-21.3213,M,,*63
$GPGGA,090035.20,2752.91957956,S,13712.34444275,E,1,05,2.87,160.00,M,-21.3213,M,,*60
$GPGGA,090035.30,2752.91990402,S,13712.33597298,E,1,05,2.87,160.00,M,-21.3213,M,,*6D
$GPGGA,090035.40,2752.92022380,S,13712.32762496,E,1,05,2.87,160.00,M,-21.3213,M,,*65
$GPGGA,090035.50,2752.92054824,S,13712.31915518,E,1,05,2.87,160.00,M,-21.3213,M,,*6A
$GPGGA,090035.60,2752.92087266,S,13712.31068540,E,1,05,2.87,160.00,M,-21.3213,M,,*65
$GPGGA,090035.70,2752.92119708,S,13712.30221562,E,1,05,2.87,160.00,M,-21.3213,M,,*61
$GPGGA,090035.80,2752.92152150,S,13712.29374584,E,1,05,2.87,160.00,M,-21.3213,M,,*6B
$GPGGA,090035.90,2752.92184590,S,13712.28527606,E,1,05,2.87,160.00,M,-21.3213,M,,*61
$GPGGA,090036.00,2752.92217029,S,13712.27680627,E,1,05,2.87,160.00,M,-21.3213,M,,*67
$GPGGA,090036.10,2752.92249468,S,13712.26833649,E,1,05,2.87,160.00,M,-21.3213,M,,*63
$GPGGA,090036.20,2752.92281906,S,13712.25986671,E,1,05,2.87,160.00,M,-21.3213,M,,*66
$GPGGA,090036.30,2752.92313876,S,13712.25151868,E,1,05,2.87,160.00,M,-21.3213,M,,*6F
$GPGGA,090036.40,2752.92346312,S,13712.24304889,E,1,05,2.87,160.00,M,-21.3213,M,,*6D
$GPGGA,090036.50,2752.92378747,S,13712.23457911,E,1,05,2.87,160.00,M,-21.3213,M,,*63
$GPGGA,090036.60,2752.92411181,S,13712.22610932,E,1,05,2.87,160.00,M,-21.3213,M,,*65
$GPGGA,090036.70,2752.92443615,S,13712.21763953,E,1,05,2.87,160.00,M,-21.3213,M,,*68
$GPGGA,090036.80,2752.92476047,S,13712.20916974,E,1,05,2.87,160.00,M,-21.3213,M,,*68
$GPGGA,090036.90,2752.92508480,S,13712.20069995,E,1,05,2.87,160.00,M,-21.3213,M,,*60
$GPGGA,090037.00,2752.92540914,S,13712.19223016,E,1,05,2.87,160.00,M,-21.3213,M,,*60
$GPGGA,090037.10,2752.92572889,S,13712.18388214,E,1,05,2.87,160.00,M,-21.3213,M,,*64
$GPGGA,090037.20,2752.92605367,S,13712.17541238,E,1,05,2.87,160.00,M,-21.3213,M,,*6D
$GPGGA,090037.30,2752.92637992,S,13712.16694273,E,1,05,2.87,160.00,M,-21.3213,M,,*68
$GPGGA,090037.40,2752.92671217,S,13712.15847352,E,1,05,2.87,160.00,M,-21.3213,M,,*6A
$GPGGA,090037.50,2752.92706874,S,13712.15000600,E,1,05,2.87,160.00,M,-21.3213,M,,*6C
$GPGGA,090037.60,2752.92748586,S,13712.14154235,E,1,05,2.87,160.00,M,-21.3213,M,,*66
$GPGGA,090037.70,2752.92793236,S,13712.13308039,E,1,05,2.87,160.00,M,-21.3213,M,,*6F
$GPGGA,090037.80,2752.92838612,S,13712.12461882,E,1,05,2.87,160.00,M,-21.3213,M,,*6D
$GPGGA,090037.90,2752.92883511,S,13712.11627900,E,1,05,2.87,160.00,M,-21.3213,M,,*64
$GPGGA,090038.00,2752.92929108,S,13712.10781755,E,1,05,2.87,160.00,M,-21.3213,M,,*6D
$GPGGA,090038.10,2752.92974716,S,13712.09935611,E,1,05,2.87,160.00,M,-21.3213,M,,*65
$GPGGA,090038.20,2752.93020326,S,13712.09089467,E,1,05,2.87,160.00,M,-21.3213,M,,*65
$GPGGA,090038.30,2752.93065935,S,13712.08243323,E,1,05,2.87,160.00,M,-21.3213,M,,*6F
$GPGGA,090038.40,2752.93111544,S,13712.07397179,E,1,05,2.87,160.00,M,-21.3213,M,,*6A
$GPGGA,090038.50,2752.93157152,S,13712.06551034,E,1,05,2.87,160.00,M,-21.3213,M,,*6F
$GPGGA,090038.60,2752.93202759,S,13712.05704890,E,1,05,2.87,160.00,M,-21.3213,M,,*65
$GPGGA,090038.70,2752.93248365,S,13712.04858745,E,1,05,2.87,160.00,M,-21.3213,M,,*61
$GPGGA,090038.80,2752.93293315,S,13712.04024765,E,1,05,2.87,160.00,M,-21.3213,M,,*6E
$GPGGA,090038.90,2752.93338920,S,13712.03178620,E,1,05,2.87,160.00,M,-21.3213,M,,*6C
$GPGGA,090039.00,2752.93384523,S,13712.02332475,E,1,05,2.87,160.00,M,-21.3213,M,,*63
$GPGGA,090039.10,2752.93430126,S,13712.01486330,E,1,05,2.87,160.00,M,-21.3213,M,,*66
$GPGGA,090039.20,2752.93475728,S,13712.00640185,E,1,05,2.87,160.00,M,-21.3213,M,,*69
$GPGGA,090039.30,2752.93521329,S,13711.99794040,E,1,05,2.87,160.00,M,-21.3213,M,,*6E
$GPGGA,090039.40,2752.93566929,S,13711.98947894,E,1,05,2.87,160.00,M,-21.3213,M,,*60
$GPGGA,090039.50,2752.93612529,S,13711.98101749,E,1,05,2.87,160.00,M,-21.3213,M,,*68
$GPGGA,090039.60,2752.93657472,S,13711.97267768,E,1,05,2.87,160.00,M,-21.3213,M,,*6A
$GPGGA,090039.70,2752.93703069,S,13711.96421622,E,1,05,2.87,160.00,M,-21.3213,M,,*6F
$GPGGA,090039.80,2752.93748666,S,13711.95575476,E,1,05,2.87,160.00,M,-21.3213,M,,*66
$GPGGA,090039.90,2752.93794262,S,13711.94729330,E,1,05,2.87,160.00,M,-21.3213,M,,*69
$GPGGA,090040.00,2752.93839857,S,13711.93883184,E,1,05,2.87,160.00,M,-21.3213,M,,*6F
$GPGGA,090040.10,2752.93885451,S,13711.93037038,E,1,05,2.87,160.00,M,-21.3213,M,,*62
$GPGGA,090040.20,2752.93931045,S,13711.92190891,E,1,05,2.87,160.00,M,-21.3213,M,,*68
$GPGGA,090040.30,2752.93976637,S,13711.91344745,E,1,05,2.87,160.00,M,-21.3213,M,,*67
$GPGGA,090040.40,2752.94022229,S,13711.90498598,E,1,05,2.87,160.00,M,-21.3213,M,,*61
$GPGGA,090040.50,2752.94067164,S,13711.89664616,E,1,05,2.87,160.00,M,-21.3213,M,,*67
$GPGGA,090040.60,2752.94112754,S,13711.88818469,E,1,05,2.87,160.00,M,-21.3213,M,,*6C
$GPGGA,090040.70,2752.94158343,S,13711.87972322,E,1,05,2.87,160.00,M,-21.3213,M,,*6B
$GPGGA,090040.80,2752.94203931,S,13711.87126175,E,1,05,2.87,160.00,M,-21.3213,M,,*6F
$GPGGA,090040.90,2752.94249518,S,13711.86280028,E,1,05,2.87,160.00,M,-21.3213,M,,*60
$GPGGA,090041.00,2752.94295105,S,13711.85433881,E,1,05,2.87,160.00,M,-21.3213,M,,*67
$GPGGA,090041.10,2752.94340690,S,13711.84587734,E,1,05,2.87,160.00,M,-21.3213,M,,*6A
$GPGGA,090041.20,2752.94386275,S,13711.83741586,E,1,05,2.87,160.00,M,-21.3213,M,,*68
$GPGGA,090041.30,2752.94431203,S,13711.82907603,E,1,05,2.87,160.00,M,-21.3213,M,,*60
$GPGGA,090041.40,2752.94476786,S,13711.82061455,E,1,05,2.87,160.00,M,-21.3213,M,,*64
$GPGGA,090041.50,2752.94522368,S,13711.81215307,E,1,05,2.87,160.00,M,-21.3213,M,,*63
$GPGGA,090041.60,2752.94567995,S,13711.80368315,E,1,05,2.87,160.00,M,-21.3213,M,,*60
$GPGGA,090041.70,2752.94613576,S,13711.79522167,E,1,05,2.87,160.00,M,-21.3213,M,,*69
$GPGGA,090041.80,2752.94659155,S,13711.78676018,E,1,05,2.87,160.00,M,-21.3213,M,,*67
$GPGGA,090041.90,2752.94704734,S,13711.77829870,E,1,05,2.87,160.00,M,-21.3213,M,,*63
$GPGGA,090042.00,2752.94749656,S,13711.76995886,E,1,05,2.87,160.00,M,-21.3213,M,,*6B
$GPGGA,090042.10,2752.94795233,S,13711.76149738,E,1,05,2.87,160.00,M,-21.3213,M,,*6F
$GPGGA,090042.20,2752.94840809,S,13711.75303589,E,1,05,2.87,160.00,M,-21.3213,M,,*6F
$GPGGA,090042.30,2752.94886384,S,13711.74457440,E,1,05,2.87,160.00,M,-21.3213,M,,*69
$GPGGA,090042.40,2752.94931959,S,13711.73611291,E,1,05,2.87,160.00,M,-21.3213,M,,*64
$GPGGA,090042.50,2752.94977532,S,13711.72765143,E,1,05,2.87,160.00,M,-21.3213,M,,*69
$GPGGA,090042.60,2752.95023105,S,13711.71918993,E,1,05,2.87,160.00,M,-21.3213,M,,*61
$GPGGA,090042.70,2752.95068676,S,13711.71072844,E,1,05,2.87,160.00,M,-21.3213,M,,*62
$GPGGA,090042.80,2752.95114247,S,13711.70226695,E,1,05,2.87,160.00,M,-21.3213,M,,*61
$GPGGA,090042.90,2752.95159162,S,13711.69392710,E,1,05,2.87,160.00,M,-21.3213,M,,*67
$GPGGA,090043.00,2752.95204731,S,13711.68546560,E,1,05,2.87,160.00,M,-21.3213,M,,*6F
$GPGGA,090043.10,2752.95250299,S,13711.67700411,E,1,05,2.87,160.00,M,-21.3213,M,,*60
$GPGGA,090043.20,2752.95295867,S,13711.66854261,E,1,05,2.87,160.00,M,-21.3213,M,,*6F
$GPGGA,090043.30,2752.95341433,S,13711.66008111,E,1,05,2.87,160.00,M,-21.3213,M,,*6E
$GPGGA,090043.40,2752.95386999,S,13711.65161961,E,1,05,2.87,160.00,M,-21.3213,M,,*6D
$GPGGA,090043.50,2752.95432564,S,13711.64315811,E,1,05,2.87,160.00,M,-21.3213,M,,*6C
$GPGGA,090043.60,2752.95478128,S,13711.63469661,E,1,05,2.87,160.00,M,-21.3213,M,,*6F
$GPGGA,090043.70,2752.95523036,S,13711.62635675,E,1,05,2.87,160.00,M,-21.3213,M,,*60
$GPGGA,090043.80,2752.95568598,S,13711.61789524,E,1,05,2.87,160.00,M,-21.3213,M,,*63
$GPGGA,090043.90,2752.95614159,S,13711.60943374,E,1,05,2.87,160.00,M,-21.3213,M,,*69
$GPGGA,090044.00,2752.95659720,S,13711.60097223,E,1,05,2.87,160.00,M,-21.3213,M,,*65
$GPGGA,090044.10,2752.95705279,S,13711.59251072,E,1,05,2.87,160.00,M,-21.3213,M,,*61
$GPGGA,090044.20,2752.95750838,S,13711.58404921,E,1,05,2.87,160.00,M,-21.3213,M,,*65
$GPGGA,090044.30,2752.95796396,S,13711.57558770,E,1,05,2.87,160.00,M,-21.3213,M,,*6C
$GPGGA,090044.40,2752.95841954,S,13711.56712619,E,1,05,2.87,160.00,M,-21.3213,M,,*69
$GPGGA,090044.50,2752.95887511,S,13711.55866468,E,1,05,2.87,160.00,M,-21.3213,M,,*64
$GPGGA,090044.60,2752.95932417,S,13711.55032482,E,1,05,2.87,160.00,M,-21.3213,M,,*62
$GPGGA,090044.70,2752.95977994,S,13711.54186332,E,1,05,2.87,160.00,M,-21.3213,M,,*67
$GPGGA,090044.80,2752.96023637,S,13711.53340189,E,1,05,2.87,160.00,M,-21.3213,M,,*68
$GPGGA,090044.90,2752.96069555,S,13711.52494071,E,1,05,2.87,160.00,M,-21.3213,M,,*69
$GPGGA,090045.00,2752.96116583,S,13711.51648055,E,1,05,2.87,160.00,M,-21.3213,M,,*65
$GPGGA,090045.10,2752.96167866,S,13711.50802408,E,1,05,2.87,160.00,M,-21.3213,M,,*69
$GPGGA,090045.20,2752.96224332,S,13711.49957182,E,1,05,2.87,160.00,M,-21.3213,M,,*6A
$GPGGA,090045.30,2752.96282328,S,13711.49112071,E,1,05,2.87,160.00,M,-21.3213,M,,*68
$GPGGA,090045.40,2752.96340703,S,13711.48266989,E,1,05,2.87,160.00,M,-21.3213,M,,*62
$GPGGA,090045.50,2752.96398329,S,13711.47434063,E,1,05,2.87,160.00,M,-21.3213,M,,*69
$GPGGA,090045.60,2752.96456818,S,13711.46588988,E,1,05,2.87,160.00,M,-21.3213,M,,*6D
$GPGGA,090045.70,2752.96515312,S,13711.45743914,E,1,05,2.87,160.00,M,-21.3213,M,,*68
$GPGGA,090045.80,2752.96573807,S,13711.44898840,E,1,05,2.87,160.00,M,-21.3213,M,,*60
$GPGGA,090045.90,2752.96632301,S,13711.44053766,E,1,05,2.87,160.00,M,-21.3213,M,,*6E
$GPGGA,090046.00,2752.96690795,S,13711.43208692,E,1,05,2.87,160.00,M,-21.3213,M,,*64
$GPGGA,090046.10,2752.96749287,S,13711.42363617,E,1,05,2.87,160.00,M,-21.3213,M,,*66
$GPGGA,090046.20,2752.96807779,S,13711.41518543,E,1,05,2.87,160.00,M,-21.3213,M,,*6F
$GPGGA,090046.30,2752.96866270,S,13711.40673468,E,1,05,2.87,160.00,M,-21.3213,M,,*62
$GPGGA,090046.40,2752.96923919,S,13711.39840543,E,1,05,2.87,160.00,M,-21.3213,M,,*69
$GPGGA,090046.50,2752.96982408,S,13711.38995467,E,1,05,2.87,160.00,M,-21.3213,M,,*61
$GPGGA,090046.60,2752.97040897,S,13711.38150392,E,1,05,2.87,160.00,M,-21.3213,M,,*62
$GPGGA,090046.70,2752.97099384,S,13711.37305317,E,1,05,2.87,160.00,M,-21.3213,M,,*6E
$GPGGA,090046.80,2752.97157871,S,13711.36460241,E,1,05,2.87,160.00,M,-21.3213,M,,*64
$GPGGA,090046.90,2752.97216356,S,13711.35615166,E,1,05,2.87,160.00,M,-21.3213,M,,*68
$GPGGA,090047.00,2752.97274841,S,13711.34770090,E,1,05,2.87,160.00,M,-21.3213,M,,*62
$GPGGA,090047.10,2752.97333325,S,13711.33925014,E,1,05,2.87,160.00,M,-21.3213,M,,*6D
$GPGGA,090047.20,2752.97391808,S,13711.33079938,E,1,05,2.87,160.00,M,-21.3213,M,,*65
$GPGGA,090047.30,2752.97449450,S,13711.32247011,E,1,05,2.87,160.00,M,-21.3213,M,,*6B
$GPGGA,090047.40,2752.97507931,S,13711.31401935,E,1,05,2.87,160.00,M,-21.3213,M,,*65
$GPGGA,090047.50,2752.97566412,S,13711.30556858,E,1,05,2.87,160.00,M,-21.3213,M,,*67
$GPGGA,090047.60,2752.97624891,S,13711.29711782,E,1,05,2.87,160.00,M,-21.3213,M,,*67
$GPGGA,090047.70,2752.97683370,S,13711.28866705,E,1,05,2.87,160.00,M,-21.3213,M,,*6E
$GPGGA,090047.80,2752.97741848,S,13711.28021628,E,1,05,2.87,160.00,M,-21.3213,M,,*6B
$GPGGA,090047.90,2752.97800325,S,13711.27176551,E,1,05,2.87,160.00,M,-21.3213,M,,*61
$GPGGA,090048.00,2752.97858802,S,13711.26331474,E,1,05,2.87,160.00,M,-21.3213,M,,*62
$GPGGA,090048.10,2752.97916436,S,13711.25498546,E,1,05,2.87,160.00,M,-21.3213,M,,*64
$GPGGA,090048.20,2752.97974911,S,13711.24653468,E,1,05,2.87,160.00,M,-21.3213,M,,*62
$GPGGA,090048.30,2752.98033384,S,13711.23808390,E,1,05,2.87,160.00,M,-21.3213,M,,*67
$GPGGA,090048.40,2752.98091857,S,13711.22963313,E,1,05,2.87,160.00,M,-21.3213,M,,*6B
$GPGGA,090048.50,2752.98150329,S,13711.22118235,E,1,05,2.87,160.00,M,-21.3213,M,,*65
$GPGGA,090048.60,2752.98208800,S,13711.21273156,E,1,05,2.87,160.00,M,-21.3213,M,,*63
$GPGGA,090048.70,2752.98267270,S,13711.20428078,E,1,05,2.87,160.00,M,-21.3213,M,,*62
$GPGGA,090048.80,2752.98325740,S,13711.19583000,E,1,05,2.87,160.00,M,-21.3213,M,,*69
$GPGGA,090048.90,2752.98384208,S,13711.18737921,E,1,05,2.87,160.00,M,-21.3213,M,,*6C
$GPGGA,090049.00,2752.98441835,S,13711.17904992,E,1,05,2.87,160.00,M,-21.3213,M,,*67
$GPGGA,090049.10,2752.98500302,S,13711.17059913,E,1,05,2.87,160.00,M,-21.3213,M,,*65
$GPGGA,090049.20,2752.98558768,S,13711.16214834,E,1,05,2.87,160.00,M,-21.3213,M,,*6D
$GPGGA,090049.30,2752.98617233,S,13711.15369755,E,1,05,2.87,160.00,M,-21.3213,M,,*6F
$GPGGA,090049.40,2752.98675697,S,13711.14524675,E,1,05,2.87,160.00,M,-21.3213,M,,*6B
$GPGGA,090049.50,2752.98734160,S,13711.13679596,E,1,05,2.87,160.00,M,-21.3213,M,,*63
$GPGGA,090049.60,2752.98792623,S,13711.12834516,E,1,05,2.87,160.00,M,-21.3213,M,,*62
$GPGGA,090049.70,2752.98851084,S,13711.11989437,E,1,05,2.87,160.00,M,-21.3213,M,,*6E
$GPGGA,090049.80,2752.98909545,S,13711.11144357,E,1,05,2.87,160.00,M,-21.3213,M,,*6D
$GPGGA,090049.90,2752.98967164,S,13711.10311426,E,1,05,2.87,160.00,M,-21.3213,M,,*61
$GPGGA,090050.00,2752.99025623,S,13711.09466346,E,1,05,2.87,160.00,M,-21.3213,M,,*64
$GPGGA,090050.10,2752.99084082,S,13711.08621266,E,1,05,2.87,160.00,M,-21.3213,M,,*60
$GPGGA,090050.20,2752.99142539,S,13711.07776185,E,1,05,2.87,160.00,M,-21.3213,M,,*6F
$GPGGA,090050.30,2752.99200995,S,13711.06931104,E,1,05,2.87,160.00,M,-21.3213,M,,*64
$GPGGA,090050.40,2752.99259451,S,13711.06086024,E,1,05,2.87,160.00,M,-21.3213,M,,*6C
$GPGGA,090050.50,2752.99317905,S,13711.05240943,E,1,05,2.87,160.00,M,-21.3213,M,,*69
$GPGGA,090050.60,2752.99376359,S,13711.04395862,E,1,05,2.87,160.00,M,-21.3213,M,,*64
$GPGGA,090050.70,2752.99434812,S,13711.03550780,E,1,05,2.87,160.00,M,-21.3213,M,,*6B
$GPGGA,090050.80,2752.99492424,S,13711.02717849,E,1,05,2.87,160.00,M,-21.3213,M,,*6B
$GPGGA,090050.90,2752.99550875,S,13711.01872767,E,1,05,2.87,160.00,M,-21.3213,M,,*61
$GPGGA,090051.00,2752.99609325,S,13711.01027685,E,1,05,2.87,160.00,M,-21.3213,M,,*6D
$GPGGA,090051.10,2752.99667775,S,13711.00182604,E,1,05,2.87,160.00,M,-21.3213,M,,*63
$GPGGA,090051.20,2752.99726224,S,13710.99337522,E,1,05,2.87,160.00,M,-21.3213,M,,*6F
$GPGGA,090051.30,2752.99784671,S,13710.98492439,E,1,05,2.87,160.00,M,-21.3213,M,,*60
$GPGGA,090051.40,2752.99843118,S,13710.97647357,E,1,05,2.87,160.00,M,-21.3213,M,,*61
$GPGGA,090051.50,2752.99901564,S,13710.96802275,E,1,05,2.87,160.00,M,-21.3213,M,,*67
$GPGGA,090051.60,2752.99960010,S,13710.95957192,E,1,05,2.87,160.00,M,-21.3213,M,,*6D
$GPGGA,090051.70,2753.00017614,S,13710.95124259,E,1,05,2.87,160.00,M,-21.3213,M,,*6E
$GPGGA,090051.80,2753.00076057,S,13710.94279176,E,1,05,2.87,160.00,M,-21.3213,M,,*63
$GPGGA,090051.90,2753.00134500,S,13710.93434093,E,1,05,2.87,160.00,M,-21.3213,M,,*60
$GPGGA,090052.00,2753.00192942,S,13710.92589010,E,1,05,2.87,160.00,M,-21.3213,M,,*61
$GPGGA,090052.10,2753.00251386,S,13710.91743927,E,1,05,2.87,160.00,M,-21.3213,M,,*64
$GPGGA,090052.20,2753.00309836,S,13710.90898845,E,1,05,2.87,160.00,M,-21.3213,M,,*66
$GPGGA,090052.30,2753.00368318,S,13710.90053765,E,1,05,2.87,160.00,M,-21.3213,M,,*65
$GPGGA,090052.40,2753.00426930,S,13710.89208698,E,1,05,2.87,160.00,M,-21.3213,M,,*68
$GPGGA,090052.50,2753.00486070,S,13710.88363682,E,1,05,2.87,160.00,M,-21.3213,M,,*68
$GPGGA,090052.60,2753.00546433,S,13710.87531011,E,1,05,2.87,160.00,M,-21.3213,M,,*67
$GPGGA,090052.70,2753.00613500,S,13710.86686710,E,1,05,2.87,160.00,M,-21.3213,M,,*6C
$GPGGA,090052.80,2753.00683879,S,13710.85842683,E,1,05,2.87,160.00,M,-21.3213,M,,*67
$GPGGA,090052.90,2753.00755079,S,13710.84998721,E,1,05,2.87,160.00,M,-21.3213,M,,*6A
$GPGGA,090053.00,2753.00826483,S,13710.84154775,E,1,05,2.87,160.00,M,-21.3213,M,,*61
$GPGGA,090053.10,2753.00897935,S,13710.83310833,E,1,05,2.87,160.00,M,-21.3213,M,,*62
$GPGGA,090053.20,2753.00969399,S,13710.82466891,E,1,05,2.87,160.00,M,-21.3213,M,,*62
$GPGGA,090053.30,2753.01040866,S,13710.81622949,E,1,05,2.87,160.00,M,-21.3213,M,,*6E
$GPGGA,090053.40,2753.01112332,S,13710.80779007,E,1,05,2.87,160.00,M,-21.3213,M,,*68
$GPGGA,090053.50,2753.01182770,S,13710.79947198,E,1,05,2.87,160.00,M,-21.3213,M,,*60
$GPGGA,090053.60,2753.01254235,S,13710.79103255,E,1,05,2.87,160.00,M,-21.3213,M,,*65
$GPGGA,090053.70,2753.01325699,S,13710.78259313,E,1,05,2.87,160.00,M,-21.3213,M,,*6F
$GPGGA,090053.80,2753.01397162,S,13710.77415371,E,1,05,2.87,160.00,M,-21.3213,M,,*6F
$GPGGA,090053.90,2753.01468624,S,13710.76571428,E,1,05,2.87,160.00,M,-21.3213,M,,*65
$GPGGA,090054.00,2753.01540086,S,13710.75727485,E,1,05,2.87,160.00,M,-21.3213,M,,*6B
$GPGGA,090054.10,2753.01611546,S,13710.74883542,E,1,05,2.87,160.00,M,-21.3213,M,,*6E
$GPGGA,090054.20,2753.01683006,S,13710.74039599,E,1,05,2.87,160.00,M,-21.3213,M,,*68
$GPGGA,090054.30,2753.01753438,S,13710.73207788,E,1,05,2.87,160.00,M,-21.3213,M,,*66
$GPGGA,090054.40,2753.01824895,S,13710.72363844,E,1,05,2.87,160.00,M,-21.3213,M,,*68
$GPGGA,090054.50,2753.01896353,S,13710.71519900,E,1,05,2.87,160.00,M,-21.3213,M,,*68
$GPGGA,090054.60,2753.01967809,S,13710.70675956,E,1,05,2.87,160.00,M,-21.3213,M,,*6B
$GPGGA,090054.70,2753.02039264,S,13710.69832012,E,1,05,2.87,160.00,M,-21.3213,M,,*66
$GPGGA,090054.80,2753.02110719,S,13710.68988068,E,1,05,2.87,160.00,M,-21.3213,M,,*60
$GPGGA,090054.90,2753.02182172,S,13710.68144123,E,1,05,2.87,160.00,M,-21.3213,M,,*67
$GPGGA,090055.00,2753.02253625,S,13710.67300178,E,1,05,2.87,160.00,M,-21.3213,M,,*66
$GPGGA,090055.10,2753.02324050,S,13710.66468366,E,1,05,2.87,160.00,M,-21.3213,M,,*67
$GPGGA,090055.20,2753.02395501,S,13710.65624421,E,1,05,2.87,160.00,M,-21.3213,M,,*62
$GPGGA,090055.30,2753.02466951,S,13710.64780476,E,1,05,2.87,160.00,M,-21.3213,M,,*6D
$GPGGA,090055.40,2753.02538400,S,13710.63936530,E,1,05,2.87,160.00,M,-21.3213,M,,*6E
$GPGGA,090055.50,2753.02609849,S,13710.63092585,E,1,05,2.87,160.00,M,-21.3213,M,,*66
$GPGGA,090055.60,2753.02681296,S,13710.62248639,E,1,05,2.87,160.00,M,-21.3213,M,,*6D
$GPGGA,090055.70,2753.02752743,S,13710.61404693,E,1,05,2.87,160.00,M,-21.3213,M,,*63
$GPGGA,090055.80,2753.02824189,S,13710.60560747,E,1,05,2.87,160.00,M,-21.3213,M,,*68
$GPGGA,090055.90,2753.02894607,S,13710.59728933,E,1,05,2.87,160.00,M,-21.3213,M,,*6A
$GPGGA,090056.00,2753.02966051,S,13710.58884986,E,1,05,2.87,160.00,M,-21.3213,M,,*6F
$GPGGA,090056.10,2753.03037495,S,13710.58041040,E,1,05,2.87,160.00,M,-21.3213,M,,*6C
$GPGGA,090056.20,2753.03108937,S,13710.57197093,E,1,05,2.87,160.00,M,-21.3213,M,,*6C
$GPGGA,090056.30,2753.03180379,S,13710.56353146,E,1,05,2.87,160.00,M,-21.3213,M,,*6F
$GPGGA,090056.40,2753.03251819,S,13710.55509199,E,1,05,2.87,160.00,M,-21.3213,M,,*62
$GPGGA,090056.50,2753.03323259,S,13710.54665251,E,1,05,2.87,160.00,M,-21.3213,M,,*66
$GPGGA,090056.60,2753.03394698,S,13710.53821304,E,1,05,2.87,160.00,M,-21.3213,M,,*68
$GPGGA,090056.70,2753.03465109,S,13710.52989488,E,1,05,2.87,160.00,M,-21.3213,M,,*6E
$GPGGA,090056.80,2753.03536547,S,13710.52145540,E,1,05,2.87,160.00,M,-21.3213,M,,*65
$GPGGA,090056.90,2753.03607983,S,13710.51301592,E,1,05,2.87,160.00,M,-21.3213,M,,*6F
$GPGGA,090057.00,2753.03679419,S,13710.50457644,E,1,05,2.87,160.00,M,-21.3213,M,,*6D
$GPGGA,090057.10,2753.03750853,S,13710.49613696,E,1,05,2.87,160.00,M,-21.3213,M,,*61
$GPGGA,090057.20,2753.03822287,S,13710.48769747,E,1,05,2.87,160.00,M,-21.3213,M,,*6B
$GPGGA,090057.30,2753.03893720,S,13710.47925798,E,1,05,2.87,160.00,M,-21.3213,M,,*63
$GPGGA,090057.40,2753.03965152,S,13710.47081849,E,1,05,2.87,160.00,M,-21.3213,M,,*6B
$GPGGA,090057.50,2753.04035557,S,13710.46250032,E,1,05,2.87,160.00,M,-21.3213,M,,*6B
$GPGGA,090057.60,2753.04106987,S,13710.45406083,E,1,05,2.87,160.00,M,-21.3213,M,,*64
$GPGGA,090057.70,2753.04178417,S,13710.44562133,E,1,05,2.87,160.00,M,-21.3213,M,,*60
$GPGGA,090057.80,2753.04249845,S,13710.43718184,E,1,05,2.87,160.00,M,-21.3213,M,,*61
$GPGGA,090057.90,2753.04321273,S,13710.42874234,E,1,05,2.87,160.00,M,-21.3213,M,,*6C
$GPGGA,090058.00,2753.04392700,S,13710.42030284,E,1,05,2.87,160.00,M,-21.3213,M,,*60
$GPGGA,090058.10,2753.04464126,S,13710.41186333,E,1,05,2.87,160.00,M,-21.3213,M,,*6F
$GPGGA,090058.20,2753.04535552,S,13710.40342383,E,1,05,2.87,160.00,M,-21.3213,M,,*6E
$GPGGA,090058.30,2753.04606976,S,13710.39498432,E,1,05,2.87,160.00,M,-21.3213,M,,*65
$GPGGA,090058.40,2753.04677373,S,13710.38666614,E,1,05,2.87,160.00,M,-21.3213,M,,*6F
$GPGGA,090058.50,2753.04748795,S,13710.37822663,E,1,05,2.87,160.00,M,-21.3213,M,,*6E
$GPGGA,090058.60,2753.04820217,S,13710.36978712,E,1,05,2.87,160.00,M,-21.3213,M,,*6B
$GPGGA,090058.70,2753.04891638,S,13710.36134760,E,1,05,2.87,160.00,M,-21.3213,M,,*6C
$GPGGA,090058.80,2753.04963058,S,13710.35290809,E,1,05,2.87,160.00,M,-21.3213,M,,*61
$GPGGA,090058.90,2753.05034478,S,13710.34446857,E,1,05,2.87,160.00,M,-21.3213,M,,*6B
$GPGGA,090059.00,2753.05105896,S,13710.33602905,E,1,05,2.87,160.00,M,-21.3213,M,,*6F
$GPGGA,090059.10,2753.05177313,S,13710.32758953,E,1,05,2.87,160.00,M,-21.3213,M,,*61
$GPGGA,090059.20,2753.05247703,S,13710.31927134,E,1,05,2.87,160.00,M,-21.3213,M,,*6B
$GPGGA,090059.30,2753.05319119,S,13710.31083181,E,1,05,2.87,160.00,M,-21.3213,M,,*64
$GPGGA,090059.40,2753.05390534,S,13710.30239229,E,1,05,2.87,160.00,M,-21.3213,M,,*6A
$GPGGA,090059.50,2753.05461949,S,13710.29395276,E,1,05,2.87,160.00,M,-21.3213,M,,*61
$GPGGA,090059.60,2753.05533363,S,13710.28551323,E,1,05,2.87,160.00,M,-21.3213,M,,*68
$GPGGA,090059.70,2753.05604780,S,13710.27707370,E,1,05,2.87,160.00,M,-21.3213,M,,*6F
$GPGGA,090059.80,2753.05676212,S,13710.26863420,E,1,05,2.87,160.00,M,-21.3213,M,,*65
$GPGGA,090059.90,2753.05747703,S,13710.26019476,E,1,05,2.87,160.00,M,-21.3213,M,,*64
$GPGGA,090100.00,2753.05818406,S,13710.25187696,E,1,05,2.87,160.00,M,-21.3213,M,,*6A
$GPGGA,090100.10,2753.05891114,S,13710.24343905,E,1,05,2.87,160.00,M,-21.3213,M,,*62
$GPGGA,090100.20,2753.05967680,S,13710.23500583,E,1,05,2.87,160.00,M,-21.3213,M,,*67
$GPGGA,090100.30,2753.06049784,S,13710.22657898,E,1,05,2.87,160.00,M,-21.3213,M,,*62
$GPGGA,090100.40,2753.06133652,S,13710.21815407,E,1,05,2.87,160.00,M,-21.3213,M,,*62
$GPGGA,090100.50,2753.06217954,S,13710.20972962,E,1,05,2.87,160.00,M,-21.3213,M,,*60
$GPGGA,090100.60,2753.06302364,S,13710.20130529,E,1,05,2.87,160.00,M,-21.3213,M,,*62
$GPGGA,090100.70,2753.06386799,S,13710.19288099,E,1,05,2.87,160.00,M,-21.3213,M,,*6D
$GPGGA,090100.80,2753.06470027,S,13710.18457779,E,1,05,2.87,160.00,M,-21.3213,M,,*62
$GPGGA,090100.90,2753.06554469,S,13710.17615349,E,1,05,2.87,160.00,M,-21.3213,M,,*66
$GPGGA,090101.00,2753.06638910,S,13710.16772919,E,1,05,2.87,160.00,M,-21.3213,M,,*6A
$GPGGA,090101.10,2753.06723351,S,13710.15930489,E,1,05,2.87,160.00,M,-21.3213,M,,*60
$GPGGA,090101.20,2753.06807790,S,13710.15088058,E,1,05,2.87,160.00,M,-21.3213,M,,*61
$GPGGA,090101.30,2753.06892229,S,13710.14245627,E,1,05,2.87,160.00,M,-21.3213,M,,*67
$GPGGA,090101.40,2753.06976668,S,13710.13403196,E,1,05,2.87,160.00,M,-21.3213,M,,*64
$GPGGA,090101.50,2753.07061105,S,13710.12560765,E,1,05,2.87,160.00,M,-21.3213,M,,*68
$GPGGA,090101.60,2753.07144327,S,13710.11730444,E,1,05,2.87,160.00,M,-21.3213,M,,*6B
$GPGGA,090101.70,2753.07228763,S,13710.10888012,E,1,05,2.87,160.00,M,-21.3213,M,,*6D
$GPGGA,090101.80,2753.07313198,S,13710.10045581,E,1,05,2.87,160.00,M,-21.3213,M,,*6F
$GPGGA,090101.90,2753.07397631,S,13710.09203148,E,1,05,2.87,160.00,M,-21.3213,M,,*6F
$GPGGA,090102.00,2753.07482064,S,13710.08360716,E,1,05,2.87,160.00,M,-21.3213,M,,*68
$GPGGA,090102.10,2753.07566497,S,13710.07518284,E,1,05,2.87,160.00,M,-21.3213,M,,*62
$GPGGA,090102.20,2753.07650928,S,13710.06675851,E,1,05,2.87,160.00,M,-21.3213,M,,*65
$GPGGA,090102.30,2753.07735358,S,13710.05833418,E,1,05,2.87,160.00,M,-21.3213,M,,*65
$GPGGA,090102.40,2753.07819788,S,13710.04990985,E,1,05,2.87,160.00,M,-21.3213,M,,*6A
$GPGGA,090102.50,2753.07903003,S,13710.04160662,E,1,05,2.87,160.00,M,-21.3213,M,,*64
$GPGGA,090102.60,2753.07987431,S,13710.03318228,E,1,05,2.87,160.00,M,-21.3213,M,,*6E
$GPGGA,090102.70,2753.08071858,S,13710.02475795,E,1,05,2.87,160.00,M,-21.3213,M,,*6D
$GPGGA,090102.80,2753.08156284,S,13710.01633361,E,1,05,2.87,160.00,M,-21.3213,M,,*61
$GPGGA,090102.90,2753.08240709,S,13710.00790926,E,1,05,2.87,160.00,M,-21.3213,M,,*64
$GPGGA,090103.00,2753.08325133,S,13709.99948492,E,1,05,2.87,160.00,M,-21.3213,M,,*60
$GPGGA,090103.10,2753.08409557,S,13709.99106057,E,1,05,2.87,160.00,M,-21.3213,M,,*61
$GPGGA,090103.20,2753.08493980,S,13709.98263622,E,1,05,2.87,160.00,M,-21.3213,M,,*62
$GPGGA,090103.30,2753.08577188,S,13709.97433298,E,1,05,2.87,160.00,M,-21.3213,M,,*61
$GPGGA,090103.40,2753.08661609,S,13709.96590863,E,1,05,2.87,160.00,M,-21.3213,M,,*6B
$GPGGA,090103.50,2753.08746029,S,13709.95748427,E,1,05,2.87,160.00,M,-21.3213,M,,*62
$GPGGA,090103.60,2753.08830448,S,13709.94905991,E,1,05,2.87,160.00,M,-21.3213,M,,*6A
$GPGGA,090103.70,2753.08914867,S,13709.94063555,E,1,05,2.87,160.00,M,-21.3213,M,,*60
$GPGGA,090103.80,2753.08999284,S,13709.93221119,E,1,05,2.87,160.00,M,-21.3213,M,,*62
$GPGGA,090103.90,2753.09083701,S,13709.92378683,E,1,05,2.87,160.00,M,-21.3213,M,,*60
$GPGGA,090104.00,2753.09168117,S,13709.91536246,E,1,05,2.87,160.00,M,-21.3213,M,,*69
$GPGGA,090104.10,2753.09251318,S,13709.90705920,E,1,05,2.87,160.00,M,-21.3213,M,,*64
$GPGGA,090104.20,2753.09335732,S,13709.89863483,E,1,05,2.87,160.00,M,-21.3213,M,,*6B
$GPGGA,090104.30,2753.09420146,S,13709.89021046,E,1,05,2.87,160.00,M,-21.3213,M,,*6F
$GPGGA,090104.40,2753.09504558,S,13709.88178609,E,1,05,2.87,160.00,M,-21.3213,M,,*65
$GPGGA,090104.50,2753.09588970,S,13709.87336171,E,1,05,2.87,160.00,M,-21.3213,M,,*69
$GPGGA,090104.60,2753.09673380,S,13709.86493733,E,1,05,2.87,160.00,M,-21.3213,M,,*61
$GPGGA,090104.70,2753.09757790,S,13709.85651295,E,1,05,2.87,160.00,M,-21.3213,M,,*64
$GPGGA,090104.80,2753.09842199,S,13709.84808857,E,1,05,2.87,160.00,M,-21.3213,M,,*68
$GPGGA,090104.90,2753.09925394,S,13709.83978529,E,1,05,2.87,160.00,M,-21.3213,M,,*63
$GPGGA,090105.00,2753.10009801,S,13709.83136090,E,1,05,2.87,160.00,M,-21.3213,M,,*66
$GPGGA,090105.10,2753.10094208,S,13709.82293652,E,1,05,2.87,160.00,M,-21.3213,M,,*65
$GPGGA,090105.20,2753.10178613,S,13709.81451212,E,1,05,2.87,160.00,M,-21.3213,M,,*60
$GPGGA,090105.30,2753.10263018,S,13709.80608773,E,1,05,2.87,160.00,M,-21.3213,M,,*68
$GPGGA,090105.40,2753.10347422,S,13709.79766334,E,1,05,2.87,160.00,M,-21.3213,M,,*6D
$GPGGA,090105.50,2753.10431825,S,13709.78923894,E,1,05,2.87,160.00,M,-21.3213,M,,*6E
$GPGGA,090105.60,2753.10516227,S,13709.78081454,E,1,05,2.87,160.00,M,-21.3213,M,,*60
$GPGGA,090105.70,2753.10599415,S,13709.77251124,E,1,05,2.87,160.00,M,-21.3213,M,,*63
$GPGGA,090105.80,2753.10683815,S,13709.76408684,E,1,05,2.87,160.00,M,-21.3213,M,,*6E
$GPGGA,090105.90,2753.10768215,S,13709.75566243,E,1,05,2.87,160.00,M,-21.3213,M,,*64
$GPGGA,090106.00,2753.10852613,S,13709.74723803,E,1,05,2.87,160.00,M,-21.3213,M,,*66
$GPGGA,090106.10,2753.10937011,S,13709.73881362,E,1,05,2.87,160.00,M,-21.3213,M,,*6D
$GPGGA,090106.20,2753.11021408,S,13709.73038920,E,1,05,2.87,160.00,M,-21.3213,M,,*6B
$GPGGA,090106.30,2753.11105804,S,13709.72196479,E,1,05,2.87,160.00,M,-21.3213,M,,*68
$GPGGA,090106.40,2753.11190200,S,13709.71354037,E,1,05,2.87,160.00,M,-21.3213,M,,*6C
$GPGGA,090106.50,2753.11274594,S,13709.70511595,E,1,05,2.87,160.00,M,-21.3213,M,,*65
$GPGGA,090106.60,2753.11357774,S,13709.69681264,E,1,05,2.87,160.00,M,-21.3213,M,,*61
$GPGGA,090106.70,2753.11442167,S,13709.68838822,E,1,05,2.87,160.00,M,-21.3213,M,,*62
$GPGGA,090106.80,2753.11526559,S,13709.67996379,E,1,05,2.87,160.00,M,-21.3213,M,,*68
$GPGGA,090106.90,2753.11610950,S,13709.67153936,E,1,05,2.87,160.00,M,-21.3213,M,,*6A
$GPGGA,090107.00,2753.11695340,S,13709.66311494,E,1,05,2.87,160.00,M,-21.3213,M,,*64
$GPGGA,090107.10,2753.11779730,S,13709.65469051,E,1,05,2.87,160.00,M,-21.3213,M,,*63
$GPGGA,090107.20,2753.11864121,S,13709.64626607,E,1,05,2.87,160.00,M,-21.3213,M,,*68
$GPGGA,090107.30,2753.11948518,S,13709.63784165,E,1,05,2.87,160.00,M,-21.3213,M,,*65
$GPGGA,090107.40,2753.12031728,S,13709.62953838,E,1,05,2.87,160.00,M,-21.3213,M,,*63
$GPGGA,090107.50,2753.12116264,S,13709.62111416,E,1,05,2.87,160.00,M,-21.3213,M,,*65
$GPGGA,090107.60,2753.12201258,S,13709.61269060,E,1,05,2.87,160.00,M,-21.3213,M,,*66
$GPGGA,090107.70,2753.12288107,S,13709.60426970,E,1,05,2.87,160.00,M,-21.3213,M,,*6B
$GPGGA,090107.80,2753.12380577,S,13709.59585652,E,1,05,2.87,160.00,M,-21.3213,M,,*63
$GPGGA,090107.90,2753.12476702,S,13709.58744815,E,1,05,2.87,160.00,M,-21.3213,M,,*6F
$GPGGA,090108.00,2753.12573745,S,13709.57904094,E,1,05,2.87,160.00,M,-21.3213,M,,*6A
$GPGGA,090108.10,2753.12671015,S,13709.57063402,E,1,05,2.87,160.00,M,-21.3213,M,,*6B
$GPGGA,090108.20,2753.12766940,S,13709.56234803,E,1,05,2.87,160.00,M,-21.3213,M,,*6A
$GPGGA,090108.30,2753.12864278,S,13709.55394119,E,1,05,2.87,160.00,M,-21.3213,M,,*6C
$GPGGA,090108.40,2753.12961619,S,13709.54553436,E,1,05,2.87,160.00,M,-21.3213,M,,*68
$GPGGA,090108.50,2753.13058960,S,13709.53712752,E,1,05,2.87,160.00,M,-21.3213,M,,*6B
$GPGGA,090108.60,2753.13156300,S,13709.52872068,E,1,05,2.87,160.00,M,-21.3213,M,,*6D
$GPGGA,090108.70,2753.13253639,S,13709.52031384,E,1,05,2.87,160.00,M,-21.3213,M,,*6B
$GPGGA,090108.80,2753.13350977,S,13709.51190700,E,1,05,2.87,160.00,M,-21.3213,M,,*62
$GPGGA,090108.90,2753.13448315,S,13709.50350016,E,1,05,2.87,160.00,M,-21.3213,M,,*6C
$GPGGA,090109.00,2753.13544252,S,13709.49521416,E,1,05,2.87,160.00,M,-21.3213,M,,*67
$GPGGA,090109.10,2753.13641588,S,13709.48680731,E,1,05,2.87,160.00,M,-21.3213,M,,*6F
$GPGGA,090109.20,2753.13738923,S,13709.47840046,E,1,05,2.87,160.00,M,-21.3213,M,,*64
$GPGGA,090109.30,2753.13836257,S,13709.46999361,E,1,05,2.87,160.00,M,-21.3213,M,,*6E
$GPGGA,090109.40,2753.13933590,S,13709.46158675,E,1,05,2.87,160.00,M,-21.3213,M,,*64
$GPGGA,090109.50,2753.14030922,S,13709.45317989,E,1,05,2.87,160.00,M,-21.3213,M,,*6B
$GPGGA,090109.60,2753.14128254,S,13709.44477303,E,1,05,2.87,160.00,M,-21.3213,M,,*62
$GPGGA,090109.70,2753.14225584,S,13709.43636616,E,1,05,2.87,160.00,M,-21.3213,M,,*66
$GPGGA,090109.80,2753.14321515,S,13709.42808015,E,1,05,2.87,160.00,M,-21.3213,M,,*63
$GPGGA,090109.90,2753.14418844,S,13709.41967328,E,1,05,2.87,160.00,M,-21.3213,M,,*60
$GPGGA,090110.00,2753.14516172,S,13709.41126641,E,1,05,2.87,160.00,M,-21.3213,M,,*65
$GPGGA,090110.10,2753.14613499,S,13709.40285953,E,1,05,2.87,160.00,M,-21.3213,M,,*65
$GPGGA,090110.20,2753.14710826,S,13709.39445266,E,1,05,2.87,160.00,M,-21.3213,M,,*65
$GPGGA,090110.30,2753.14808151,S,13709.38604578,E,1,05,2.87,160.00,M,-21.3213,M,,*65
$GPGGA,090110.40,2753.14905476,S,13709.37763890,E,1,05,2.87,160.00,M,-21.3213,M,,*6A
