$GPGGA,090000.00,2822.56455235,S,13714.06350790,E,1,05,2.87,160.00,M,-21.3213,M,,*6D
$GPGGA,090000.10,2822.56455235,S,13714.06350790,E,1,05,2.87,160.00,M,-21.3213,M,,*6C
$GPGGA,090000.20,2822.56455235,S,13714.06350790,E,1,05,2.87,160.00,M,-21.3213,M,,*6F
$GPGGA,090000.30,2822.56455235,S,13714.06350790,E,1,05,2.87,160.00,M,-21.3213,M,,*6E
$GPGGA,090000.40,2822.56455235,S,13714.06350790,E,1,05,2.87,160.00,M,-21.3213,M,,*69
$GPGGA,090000.50,2822.56455235,S,13714.06350790,E,1,05,2.87,160.00,M,-21.3213,M,,*68
$GPGGA,090000.60,2822.56455235,S,13714.06350790,E,1,05,2.87,160.00,M,-21.3213,M,,*6B
$GPGGA,090000.70,2822.56455235,S,13714.06350790,E,1,05,2.87,160.00,M,-21.3213,M,,*6A
$GPGGA,090000.80,2822.56455235,S,13714.06350790,E,1,05,2.87,160.00,M,-21.3213,M,,*65
$GPGGA,090000.90,2822.56455235,S,13714.06350790,E,1,05,2.87,160.00,M,-21.3213,M,,*64
$GPGGA,090001.00,2822.56455235,S,13714.06350790,E,1,05,2.87,160.00,M,-21.3213,M,,*6C
$GPGGA,090001.10,2822.56455235,S,13714.06350790,E,1,05,2.87,160.00,M,-21.3213,M,,*6D
$GPGGA,090001.20,2822.56455235,S,13714.06350790,E,1,05,2.87,160.00,M,-21.3213,M,,*6E
$GPGGA,090001.30,2822.56455235,S,13714.06350790,E,1,05,2.87,160.00,M,-21.3213,M,,*6F
$GPGGA,090001.40,2822.56455235,S,13714.06350790,E,1,05,2.87,160.00,M,-21.3213,M,,*68
$GPGGA,090001.50,2822.56455235,S,13714.06350790,E,1,05,2.87,160.00,M,-21.3213,M,,*69
$GPGGA,090001.60,2822.56455235,S,13714.06350790,E,1,05,2.87,160.00,M,-21.3213,M,,*6A
$GPGGA,090001.70,2822.56455235,S,13714.06350790,E,1,05,2.87,160.00,M,-21.3213,M,,*6B
$GPGGA,090001.80,2822.56455235,S,13714.06350790,E,1,05,2.87,160.00,M,-21.3213,M,,*64
$GPGGA,090001.90,2822.56455235,S,13714.06350790,E,1,05,2.87,160.00,M,-21.3213,M,,*65
$GPGGA,090002.00,2822.56455235,S,13714.06350790,E,1,05,2.87,160.00,M,-21.3213,M,,*6F
$GPGGA,090002.10,2822.56455235,S,13714.06350790,E,1,05,2.87,160.00,M,-21.3213,M,,*6E
$GPGGA,090002.20,2822.56455235,S,13714.06350790,E,1,05,2.87,160.00,M,-21.3213,M,,*6D
$GPGGA,090002.30,2822.56455235,S,13714.06350790,E,1,05,2.87,160.00,M,-21.3213,M,,*6C
$GPGGA,090002.40,2822.56455235,S,13714.06350790,E,1,05,2.87,160.00,M,-21.3213,M,,*6B
$GPGGA,090002.50,2822.56455235,S,13714.06350790,E,1,05,2.87,160.00,M,-21.3213,M,,*6A
$GPGGA,090002.60,2822.56455235,S,13714.06350790,E,1,05,2.87,160.00,M,-21.3213,M,,*69
$GPGGA,090002.70,2822.56455235,S,13714.06350790,E,1,05,2.87,160.00,M,-21.3213,M,,*68
$GPGGA,090002.80,2822.56455235,S,13714.06350790,E,1,05,2.87,160.00,M,-21.3213,M,,*67
$GPGGA,090002.90,2822.56455235,S,13714.06350790,E,1,05,2.87,160.00,M,-21.3213,M,,*66
$GPGGA,090003.00,2822.56455235,S,13714.06350790,E,1,05,2.87,160.00,M,-21.3213,M,,*6E
$GPGGA,090003.10,2822.56455235,S,13714.06350790,E,1,05,2.87,160.00,M,-21.3213,M,,*6F
$GPGGA,090003.20,2822.56455235,S,13714.06350790,E,1,05,2.87,160.00,M,-21.3213,M,,*6C
$GPGGA,090003.30,2822.56455235,S,13714.06350790,E,1,05,2.87,160.00,M,-21.3213,M,,*6D
$GPGGA,090003.40,2822.56455235,S,13714.06350790,E,1,05,2.87,160.00,M,-21.3213,M,,*6A
$GPGGA,090003.50,2822.56455235,S,13714.06350790,E,1,05,2.87,160.00,M,-21.3213,M,,*6B
$GPGGA,090003.60,2822.56455235,S,13714.06350790,E,1,05,2.87,160.00,M,-21.3213,M,,*68
$GPGGA,090003.70,2822.56455235,S,13714.06350790,E,1,05,2.87,160.00,M,-21.3213,M,,*69
$GPGGA,090003.80,2822.56455235,S,13714.06350790,E,1,05,2.87,160.00,M,-21.3213,M,,*66
$GPGGA,090003.90,2822.56455235,S,13714.06350790,E,1,05,2.87,160.00,M,-21.3213,M,,*67
$GPGGA,090004.00,2822.56455235,S,13714.06350790,E,1,05,2.87,160.00,M,-21.3213,M,,*69
$GPGGA,090004.10,2822.56455235,S,13714.06350790,E,1,05,2.87,160.00,M,-21.3213,M,,*68
$GPGGA,090004.20,2822.56455235,S,13714.06350790,E,1,05,2.87,160.00,M,-21.3213,M,,*6B
$GPGGA,090004.30,2822.56455235,S,13714.06350790,E,1,05,2.87,160.00,M,-21.3213,M,,*6A
$GPGGA,090004.40,2822.56455235,S,13714.06350790,E,1,05,2.87,160.00,M,-21.3213,M,,*6D
$GPGGA,090004.50,2822.56455235,S,13714.06350790,E,1,05,2.87,160.00,M,-21.3213,M,,*6C
$GPGGA,090004.60,2822.56455235,S,13714.06350790,E,1,05,2.87,160.00,M,-21.3213,M,,*6F
$GPGGA,090004.70,2822.56455235,S,13714.06350790,E,1,05,2.87,160.00,M,-21.3213,M,,*6E
$GPGGA,090004.80,2822.56455235,S,13714.06350790,E,1,05,2.87,160.00,M,-21.3213,M,,*61
$GPGGA,090004.90,2822.56455235,S,13714.06350790,E,1,05,2.87,160.00,M,-21.3213,M,,*60
$GPGGA,090005.00,2822.56455235,S,13714.06350790,E,1,05,2.87,160.00,M,-21.3213,M,,*68
$GPGGA,090005.10,2822.56455235,S,13714.06350790,E,1,05,2.87,160.00,M,-21.3213,M,,*69
$GPGGA,090005.20,2822.56455235,S,13714.06350790,E,1,05,2.87,160.00,M,-21.3213,M,,*6A
$GPGGA,090005.30,2822.56455235,S,13714.06350790,E,1,05,2.87,160.00,M,-21.3213,M,,*6B
$GPGGA,090005.40,2822.56455235,S,13714.06350790,E,1,05,2.87,160.00,M,-21.3213,M,,*6C
$GPGGA,090005.50,2822.56455235,S,13714.06350790,E,1,05,2.87,160.00,M,-21.3213,M,,*6D
$GPGGA,090005.60,2822.56455235,S,13714.06350790,E,1,05,2.87,160.00,M,-21.3213,M,,*6E
$GPGGA,090005.70,2822.56455235,S,13714.06350790,E,1,05,2.87,160.00,M,-21.3213,M,,*6F
$GPGGA,090005.80,2822.56455235,S,13714.06350790,E,1,05,2.87,160.00,M,-21.3213,M,,*60
$GPGGA,090005.90,2822.56455235,S,13714.06350790,E,1,05,2.87,160.00,M,-21.3213,M,,*61
$GPGGA,090006.00,2822.56455235,S,13714.06350790,E,1,05,2.87,160.00,M,-21.3213,M,,*6B
$GPGGA,090006.10,2822.56455235,S,13714.06350790,E,1,05,2.87,160.00,M,-21.3213,M,,*6A
$GPGGA,090006.20,2822.56455235,S,13714.06350790,E,1,05,2.87,160.00,M,-21.3213,M,,*69
$GPGGA,090006.30,2822.56455235,S,13714.06350790,E,1,05,2.87,160.00,M,-21.3213,M,,*68
$GPGGA,090006.40,2822.56455235,S,13714.06350790,E,1,05,2.87,160.00,M,-21.3213,M,,*6F
$GPGGA,090006.50,2822.56455235,S,13714.06350790,E,1,05,2.87,160.00,M,-21.3213,M,,*6E
$GPGGA,090006.60,2822.56455235,S,13714.06350790,E,1,05,2.87,160.00,M,-21.3213,M,,*6D
$GPGGA,090006.70,2822.56455235,S,13714.06350790,E,1,05,2.87,160.00,M,-21.3213,M,,*6C
$GPGGA,090006.80,2822.56455235,S,13714.06350790,E,1,05,2.87,160.00,M,-21.3213,M,,*63
$GPGGA,090006.90,2822.56455235,S,13714.06350790,E,1,05,2.87,160.00,M,-21.3213,M,,*62
$GPGGA,090007.00,2822.56455235,S,13714.06350790,E,1,05,2.87,160.00,M,-21.3213,M,,*6A
$GPGGA,090007.10,2822.56455235,S,13714.06350790,E,1,05,2.87,160.00,M,-21.3213,M,,*6B
$GPGGA,090007.20,2822.56455235,S,13714.06350790,E,1,05,2.87,160.00,M,-21.3213,M,,*68
$GPGGA,090007.30,2822.56455235,S,13714.06350790,E,1,05,2.87,160.00,M,-21.3213,M,,*69
$GPGGA,090007.40,2822.56455235,S,13714.06350790,E,1,05,2.87,160.00,M,-21.3213,M,,*6E
$GPGGA,090007.50,2822.56455235,S,13714.06350790,E,1,05,2.87,160.00,M,-21.3213,M,,*6F
$GPGGA,090007.60,2822.56455235,S,13714.06350790,E,1,05,2.87,160.00,M,-21.3213,M,,*6C
$GPGGA,090007.70,2822.56455235,S,13714.06350790,E,1,05,2.87,160.00,M,-21.3213,M,,*6D
$GPGGA,090007.80,2822.56455235,S,13714.06350790,E,1,05,2.87,160.00,M,-21.3213,M,,*62
$GPGGA,090007.90,2822.56455256,S,13714.06348121,E,1,05,2.87,160.00,M,-21.3213,M,,*63
$GPGGA,090008.00,2822.56455334,S,13714.06338234,E,1,05,2.87,160.00,M,-21.3213,M,,*60
$GPGGA,090008.10,2822.56455420,S,13714.06327225,E,1,05,2.87,160.00,M,-21.3213,M,,*6D
$GPGGA,090008.20,2822.56455575,S,13714.06307515,E,1,05,2.87,160.00,M,-21.3213,M,,*69
$GPGGA,090008.30,2822.56455813,S,13714.06277268,E,1,05,2.87,160.00,M,-21.3213,M,,*6E
$GPGGA,090008.40,2822.56456089,S,13714.06242120,E,1,05,2.87,160.00,M,-21.3213,M,,*68
$GPGGA,090008.50,2822.56456410,S,13714.06201150,E,1,05,2.87,160.00,M,-21.3213,M,,*6D
$GPGGA,090008.60,2822.56456717,S,13714.06162125,E,1,05,2.87,160.00,M,-21.3213,M,,*6E
$GPGGA,090008.70,2822.56457146,S,13714.06107476,E,1,05,2.87,160.00,M,-21.3213,M,,*6C
$GPGGA,090008.80,2822.56457565,S,13714.06054144,E,1,05,2.87,160.00,M,-21.3213,M,,*65
$GPGGA,090008.90,2822.56458045,S,13714.05992943,E,1,05,2.87,160.00,M,-21.3213,M,,*63
$GPGGA,090009.00,2822.56458591,S,13714.05923418,E,1,05,2.87,160.00,M,-21.3213,M,,*6E
$GPGGA,090009.10,2822.56459205,S,13714.05845227,E,1,05,2.87,160.00,M,-21.3213,M,,*6F
$GPGGA,090009.20,2822.56459806,S,13714.05768781,E,1,05,2.87,160.00,M,-21.3213,M,,*6C
$GPGGA,090009.30,2822.56460559,S,13714.05672936,E,1,05,2.87,160.00,M,-21.3213,M,,*68
$GPGGA,090009.40,2822.56461296,S,13714.05579128,E,1,05,2.87,160.00,M,-21.3213,M,,*65
$GPGGA,090009.50,2822.56462012,S,13714.05487979,E,1,05,2.87,160.00,M,-21.3213,M,,*65
$GPGGA,090009.60,2822.56462883,S,13714.05377138,E,1,05,2.87,160.00,M,-21.3213,M,,*63
$GPGGA,090009.70,2822.56463729,S,13714.05269389,E,1,05,2.87,160.00,M,-21.3213,M,,*6A
$GPGGA,090009.80,2822.56464641,S,13714.05153416,E,1,05,2.87,160.00,M,-21.3213,M,,*66
$GPGGA,090009.90,2822.56465617,S,13714.05029346,E,1,05,2.87,160.00,M,-21.3213,M,,*6B
$GPGGA,090010.00,2822.56466579,S,13714.04907030,E,1,05,2.87,160.00,M,-21.3213,M,,*64
$GPGGA,090010.10,2822.56467641,S,13714.04772106,E,1,05,2.87,160.00,M,-21.3213,M,,*64
$GPGGA,090010.20,2822.56468620,S,13714.04647819,E,1,05,2.87,160.00,M,-21.3213,M,,*6F
$GPGGA,090010.30,2822.56469607,S,13714.04522508,E,1,05,2.87,160.00,M,-21.3213,M,,*67
$GPGGA,090010.40,2822.56470603,S,13714.04396369,E,1,05,2.87,160.00,M,-21.3213,M,,*64
$GPGGA,090010.50,2822.56471604,S,13714.04269558,E,1,05,2.87,160.00,M,-21.3213,M,,*66
$GPGGA,090010.60,2822.56472612,S,13714.04142204,E,1,05,2.87,160.00,M,-21.3213,M,,*65
$GPGGA,090010.70,2822.56473624,S,13714.04014410,E,1,05,2.87,160.00,M,-21.3213,M,,*61
$GPGGA,090010.80,2822.56474642,S,13714.03886259,E,1,05,2.87,160.00,M,-21.3213,M,,*66
$GPGGA,090010.90,2822.56475665,S,13714.03757820,E,1,05,2.87,160.00,M,-21.3213,M,,*64
$GPGGA,090011.00,2822.56476694,S,13714.03629147,E,1,05,2.87,160.00,M,-21.3213,M,,*61
$GPGGA,090011.10,2822.56477728,S,13714.03500285,E,1,05,2.87,160.00,M,-21.3213,M,,*62
$GPGGA,090011.20,2822.56478769,S,13714.03371270,E,1,05,2.87,160.00,M,-21.3213,M,,*61
$GPGGA,090011.30,2822.56479818,S,13714.03242131,E,1,05,2.87,160.00,M,-21.3213,M,,*6F
$GPGGA,090011.40,2822.56480875,S,13714.03112891,E,1,05,2.87,160.00,M,-21.3213,M,,*60
$GPGGA,090011.50,2822.56481944,S,13714.02983570,E,1,05,2.87,160.00,M,-21.3213,M,,*60
$GPGGA,090011.60,2822.56482923,S,13714.02866418,E,1,05,2.87,160.00,M,-21.3213,M,,*64
$GPGGA,090011.70,2822.56484020,S,13714.02736980,E,1,05,2.87,160.00,M,-21.3213,M,,*6F
$GPGGA,090011.80,2822.56485137,S,13714.02607498,E,1,05,2.87,160.00,M,-21.3213,M,,*61
$GPGGA,090011.90,2822.56486277,S,13714.02477980,E,1,05,2.87,160.00,M,-21.3213,M,,*65
$GPGGA,090012.00,2822.56487447,S,13714.02348433,E,1,05,2.87,160.00,M,-21.3213,M,,*65
$GPGGA,090012.10,2822.56488654,S,13714.02218863,E,1,05,2.87,160.00,M,-21.3213,M,,*66
$GPGGA,090012.20,2822.56489785,S,13714.02101517,E,1,05,2.87,160.00,M,-21.3213,M,,*6C
$GPGGA,090012.30,2822.56491088,S,13714.01971913,E,1,05,2.87,160.00,M,-21.3213,M,,*6A
$GPGGA,090012.40,2822.56492458,S,13714.01842295,E,1,05,2.87,160.00,M,-21.3213,M,,*63
$GPGGA,090012.50,2822.56493911,S,13714.01712666,E,1,05,2.87,160.00,M,-21.3213,M,,*61
$GPGGA,090012.60,2822.56495469,S,13714.01583027,E,1,05,2.87,160.00,M,-21.3213,M,,*6F
$GPGGA,090012.70,2822.56497154,S,13714.01453380,E,1,05,2.87,160.00,M,-21.3213,M,,*65
$GPGGA,090012.80,2822.56498817,S,13714.01335970,E,1,05,2.87,160.00,M,-21.3213,M,,*69
$GPGGA,090012.90,2822.56500831,S,13714.01206308,E,1,05,2.87,160.00,M,-21.3213,M,,*68
$GPGGA,090013.00,2822.56503016,S,13714.01076638,E,1,05,2.87,160.00,M,-21.3213,M,,*6D
$GPGGA,090013.10,2822.56505340,S,13714.00946962,E,1,05,2.87,160.00,M,-21.3213,M,,*61
$GPGGA,090013.20,2822.56507776,S,13714.00817282,E,1,05,2.87,160.00,M,-21.3213,M,,*61
$GPGGA,090013.30,2822.56510302,S,13714.00687597,E,1,05,2.87,160.00,M,-21.3213,M,,*65
$GPGGA,090013.40,2822.56512654,S,13714.00570156,E,1,05,2.87,160.00,M,-21.3213,M,,*64
$GPGGA,090013.50,2822.56515306,S,13714.00440593,E,1,05,2.87,160.00,M,-21.3213,M,,*6F
$GPGGA,090013.60,2822.56518009,S,13714.00310901,E,1,05,2.87,160.00,M,-21.3213,M,,*68
$GPGGA,090013.70,2822.56520752,S,13714.00181206,E,1,05,2.87,160.00,M,-21.3213,M,,*6D
$GPGGA,090013.80,2822.56523527,S,13714.00051510,E,1,05,2.87,160.00,M,-21.3213,M,,*6D
$GPGGA,090013.90,2822.56526062,S,13713.99934060,E,1,05,2.87,160.00,M,-21.3213,M,,*62
$GPGGA,090014.00,2822.56528883,S,13713.99804362,E,1,05,2.87,160.00,M,-21.3213,M,,*66
$GPGGA,090014.10,2822.56531721,S,13713.99674663,E,1,05,2.87,160.00,M,-21.3213,M,,*65
$GPGGA,090014.20,2822.56534573,S,13713.99544964,E,1,05,2.87,160.00,M,-21.3213,M,,*6E
$GPGGA,090014.30,2822.56537437,S,13713.99415264,E,1,05,2.87,160.00,M,-21.3213,M,,*63
$GPGGA,090014.40,2822.56540311,S,13713.99285564,E,1,05,2.87,160.00,M,-21.3213,M,,*6F
$GPGGA,090014.50,2822.56542921,S,13713.99168110,E,1,05,2.87,160.00,M,-21.3213,M,,*62
$GPGGA,090014.60,2822.56545810,S,13713.99038409,E,1,05,2.87,160.00,M,-21.3213,M,,*6C
$GPGGA,090014.70,2822.56548705,S,13713.98908708,E,1,05,2.87,160.00,M,-21.3213,M,,*62
$GPGGA,090014.80,2822.56551606,S,13713.98779008,E,1,05,2.87,160.00,M,-21.3213,M,,*68
$GPGGA,090014.90,2822.56554513,S,13713.98649307,E,1,05,2.87,160.00,M,-21.3213,M,,*65
$GPGGA,090015.00,2822.56557149,S,13713.98531853,E,1,05,2.87,160.00,M,-21.3213,M,,*63
$GPGGA,090015.10,2822.56560066,S,13713.98402153,E,1,05,2.87,160.00,M,-21.3213,M,,*62
$GPGGA,090015.20,2822.56562989,S,13713.98272453,E,1,05,2.87,160.00,M,-21.3213,M,,*6F
$GPGGA,090015.30,2822.56565918,S,13713.98142753,E,1,05,2.87,160.00,M,-21.3213,M,,*62
$GPGGA,090015.40,2822.56568855,S,13713.98013055,E,1,05,2.87,160.00,M,-21.3213,M,,*64
$GPGGA,090015.50,2822.56571800,S,13713.97883356,E,1,05,2.87,160.00,M,-21.3213,M,,*63
$GPGGA,090015.60,2822.56574477,S,13713.97765906,E,1,05,2.87,160.00,M,-21.3213,M,,*61
$GPGGA,090015.70,2822.56577444,S,13713.97636210,E,1,05,2.87,160.00,M,-21.3213,M,,*68
$GPGGA,090015.80,2822.56580427,S,13713.97506515,E,1,05,2.87,160.00,M,-21.3213,M,,*68
$GPGGA,090015.90,2822.56583428,S,13713.97376823,E,1,05,2.87,160.00,M,-21.3213,M,,*6C
$GPGGA,090016.00,2822.56586452,S,13713.97247132,E,1,05,2.87,160.00,M,-21.3213,M,,*64
$GPGGA,090016.10,2822.56589215,S,13713.97129691,E,1,05,2.87,160.00,M,-21.3213,M,,*6A
$GPGGA,090016.20,2822.56592299,S,13713.97000006,E,1,05,2.87,160.00,M,-21.3213,M,,*65
$GPGGA,090016.30,2822.56595424,S,13713.96870326,E,1,05,2.87,160.00,M,-21.3213,M,,*6C
$GPGGA,090016.40,2822.56598601,S,13713.96740652,E,1,05,2.87,160.00,M,-21.3213,M,,*69
$GPGGA,090016.50,2822.56601843,S,13713.96610983,E,1,05,2.87,160.00,M,-21.3213,M,,*64
$GPGGA,090016.60,2822.56605164,S,13713.96481323,E,1,05,2.87,160.00,M,-21.3213,M,,*65
$GPGGA,090016.70,2822.56608255,S,13713.96363915,E,1,05,2.87,160.00,M,-21.3213,M,,*6C
$GPGGA,090016.80,2822.56611783,S,13713.96234276,E,1,05,2.87,160.00,M,-21.3213,M,,*68
$GPGGA,090016.90,2822.56615457,S,13713.96104650,E,1,05,2.87,160.00,M,-21.3213,M,,*67
$GPGGA,090017.00,2822.56619314,S,13713.95975042,E,1,05,2.87,160.00,M,-21.3213,M,,*6B
$GPGGA,090017.10,2822.56623386,S,13713.95845454,E,1,05,2.87,160.00,M,-21.3213,M,,*69
$GPGGA,090017.20,2822.56627653,S,13713.95715884,E,1,05,2.87,160.00,M,-21.3213,M,,*68
$GPGGA,090017.30,2822.56631653,S,13713.95598564,E,1,05,2.87,160.00,M,-21.3213,M,,*6A
$GPGGA,090017.40,2822.56636194,S,13713.95469019,E,1,05,2.87,160.00,M,-21.3213,M,,*66
$GPGGA,090017.50,2822.56640839,S,13713.95339483,E,1,05,2.87,160.00,M,-21.3213,M,,*6D
$GPGGA,090017.60,2822.56645569,S,13713.95209953,E,1,05,2.87,160.00,M,-21.3213,M,,*61
$GPGGA,090017.70,2822.56650368,S,13713.95080430,E,1,05,2.87,160.00,M,-21.3213,M,,*68
$GPGGA,090017.80,2822.56654761,S,13713.94963146,E,1,05,2.87,160.00,M,-21.3213,M,,*6F
$GPGGA,090017.90,2822.56659657,S,13713.94833631,E,1,05,2.87,160.00,M,-21.3213,M,,*64
$GPGGA,090018.00,2822.56664589,S,13713.94704120,E,1,05,2.87,160.00,M,-21.3213,M,,*60
$GPGGA,090018.10,2822.56669551,S,13713.94574610,E,1,05,2.87,160.00,M,-21.3213,M,,*68
$GPGGA,090018.20,2822.56674538,S,13713.94445103,E,1,05,2.87,160.00,M,-21.3213,M,,*6E
$GPGGA,090018.30,2822.56679545,S,13713.94315597,E,1,05,2.87,160.00,M,-21.3213,M,,*63
$GPGGA,090018.40,2822.56684092,S,13713.94198326,E,1,05,2.87,160.00,M,-21.3213,M,,*62
$GPGGA,090018.50,2822.56689127,S,13713.94068823,E,1,05,2.87,160.00,M,-21.3213,M,,*61
$GPGGA,090018.60,2822.56694173,S,13713.93939320,E,1,05,2.87,160.00,M,-21.3213,M,,*6D
$GPGGA,090018.70,2822.56699229,S,13713.93809818,E,1,05,2.87,160.00,M,-21.3213,M,,*6F
$GPGGA,090018.80,2822.56704292,S,13713.93680317,E,1,05,2.87,160.00,M,-21.3213,M,,*6E
$GPGGA,090018.90,2822.56709361,S,13713.93550816,E,1,05,2.87,160.00,M,-21.3213,M,,*6B
$GPGGA,090019.00,2822.56713957,S,13713.93433549,E,1,05,2.87,160.00,M,-21.3213,M,,*64
$GPGGA,090019.10,2822.56719038,S,13713.93304048,E,1,05,2.87,160.00,M,-21.3213,M,,*68
$GPGGA,090019.20,2822.56724124,S,13713.93174548,E,1,05,2.87,160.00,M,-21.3213,M,,*69
$GPGGA,090019.30,2822.56729215,S,13713.93045047,E,1,05,2.87,160.00,M,-21.3213,M,,*6D
$GPGGA,090019.40,2822.56734311,S,13713.92915547,E,1,05,2.87,160.00,M,-21.3213,M,,*6B
$GPGGA,090019.50,2822.56739414,S,13713.92786046,E,1,05,2.87,160.00,M,-21.3213,M,,*65
$GPGGA,090019.60,2822.56744039,S,13713.92668779,E,1,05,2.87,160.00,M,-21.3213,M,,*6D
$GPGGA,090019.70,2822.56749155,S,13713.92539278,E,1,05,2.87,160.00,M,-21.3213,M,,*69
$GPGGA,090019.80,2822.56754279,S,13713.92409777,E,1,05,2.87,160.00,M,-21.3213,M,,*6F
$GPGGA,090019.90,2822.56759413,S,13713.92280276,E,1,05,2.87,160.00,M,-21.3213,M,,*6A
$GPGGA,090020.00,2822.56764560,S,13713.92150774,E,1,05,2.87,160.00,M,-21.3213,M,,*6B
$GPGGA,090020.10,2822.56769722,S,13713.92021271,E,1,05,2.87,160.00,M,-21.3213,M,,*64
$GPGGA,090020.20,2822.56774412,S,13713.91904000,E,1,05,2.87,160.00,M,-21.3213,M,,*62
$GPGGA,090020.30,2822.56779613,S,13713.91774496,E,1,05,2.87,160.00,M,-21.3213,M,,*6F
$GPGGA,090020.40,2822.56784842,S,13713.91644990,E,1,05,2.87,160.00,M,-21.3213,M,,*69
$GPGGA,090020.50,2822.56790106,S,13713.91515482,E,1,05,2.87,160.00,M,-21.3213,M,,*6D
$GPGGA,090020.60,2822.56795411,S,13713.91385972,E,1,05,2.87,160.00,M,-21.3213,M,,*65
$GPGGA,090020.70,2822.56800260,S,13713.91268693,E,1,05,2.87,160.00,M,-21.3213,M,,*65
$GPGGA,090020.80,2822.56805675,S,13713.91139177,E,1,05,2.87,160.00,M,-21.3213,M,,*65
$GPGGA,090020.90,2822.56811169,S,13713.91009657,E,1,05,2.87,160.00,M,-21.3213,M,,*6C
$GPGGA,090021.00,2822.56816759,S,13713.90880133,E,1,05,2.87,160.00,M,-21.3213,M,,*6B
$GPGGA,090021.10,2822.56822469,S,13713.90750601,E,1,05,2.87,160.00,M,-21.3213,M,,*69
$GPGGA,090021.20,2822.56828326,S,13713.90621062,E,1,05,2.87,160.00,M,-21.3213,M,,*68
$GPGGA,090021.30,2822.56833781,S,13713.90503746,E,1,05,2.87,160.00,M,-21.3213,M,,*68
$GPGGA,090021.40,2822.56839953,S,13713.90374188,E,1,05,2.87,160.00,M,-21.3213,M,,*66
$GPGGA,090021.50,2822.56846253,S,13713.90244623,E,1,05,2.87,160.00,M,-21.3213,M,,*60
$GPGGA,090021.60,2822.56852656,S,13713.90115051,E,1,05,2.87,160.00,M,-21.3213,M,,*63
$GPGGA,090021.70,2822.56859142,S,13713.89985474,E,1,05,2.87,160.00,M,-21.3213,M,,*61
$GPGGA,090021.80,2822.56865074,S,13713.89868127,E,1,05,2.87,160.00,M,-21.3213,M,,*64
$GPGGA,090021.90,2822.56871678,S,13713.89738542,E,1,05,2.87,160.00,M,-21.3213,M,,*67
$GPGGA,090022.00,2822.56878326,S,13713.89608955,E,1,05,2.87,160.00,M,-21.3213,M,,*62
$GPGGA,090022.10,2822.56885011,S,13713.89479366,E,1,05,2.87,160.00,M,-21.3213,M,,*68
$GPGGA,090022.20,2822.56891725,S,13713.89349775,E,1,05,2.87,160.00,M,-21.3213,M,,*6C
$GPGGA,090022.30,2822.56898463,S,13713.89220182,E,1,05,2.87,160.00,M,-21.3213,M,,*65
$GPGGA,090022.40,2822.56904582,S,13713.89102822,E,1,05,2.87,160.00,M,-21.3213,M,,*68
$GPGGA,090022.50,2822.56911354,S,13713.88973227,E,1,05,2.87,160.00,M,-21.3213,M,,*60
$GPGGA,090022.60,2822.56918140,S,13713.88843632,E,1,05,2.87,160.00,M,-21.3213,M,,*6F
$GPGGA,090022.70,2822.56924936,S,13713.88714036,E,1,05,2.87,160.00,M,-21.3213,M,,*67
$GPGGA,090022.80,2822.56931741,S,13713.88584439,E,1,05,2.87,160.00,M,-21.3213,M,,*62
$GPGGA,090022.90,2822.56937911,S,13713.88467076,E,1,05,2.87,160.00,M,-21.3213,M,,*6D
$GPGGA,090023.00,2822.56944730,S,13713.88337479,E,1,05,2.87,160.00,M,-21.3213,M,,*65
$GPGGA,090023.10,2822.56951555,S,13713.88207883,E,1,05,2.87,160.00,M,-21.3213,M,,*6A
$GPGGA,090023.20,2822.56958386,S,13713.88078286,E,1,05,2.87,160.00,M,-21.3213,M,,*6D
$GPGGA,090023.30,2822.56965222,S,13713.87948690,E,1,05,2.87,160.00,M,-21.3213,M,,*6B
$GPGGA,090023.40,2822.56972063,S,13713.87819094,E,1,05,2.87,160.00,M,-21.3213,M,,*6A
$GPGGA,090023.50,2822.56978262,S,13713.87701731,E,1,05,2.87,160.00,M,-21.3213,M,,*6C
$GPGGA,090023.60,2822.56985114,S,13713.87572137,E,1,05,2.87,160.00,M,-21.3213,M,,*69
$GPGGA,090023.70,2822.56991972,S,13713.87442543,E,1,05,2.87,160.00,M,-21.3213,M,,*60
$GPGGA,090023.80,2822.56998838,S,13713.87312951,E,1,05,2.87,160.00,M,-21.3213,M,,*64
$GPGGA,090023.90,2822.57005712,S,13713.87183360,E,1,05,2.87,160.00,M,-21.3213,M,,*6C
$GPGGA,090024.00,2822.57011947,S,13713.87066003,E,1,05,2.87,160.00,M,-21.3213,M,,*65
$GPGGA,090024.10,2822.57018843,S,13713.86936416,E,1,05,2.87,160.00,M,-21.3213,M,,*65
$GPGGA,090024.20,2822.57025755,S,13713.86806832,E,1,05,2.87,160.00,M,-21.3213,M,,*68
$GPGGA,090024.30,2822.57032685,S,13713.86677252,E,1,05,2.87,160.00,M,-21.3213,M,,*67
$GPGGA,090024.40,2822.57039638,S,13713.86547676,E,1,05,2.87,160.00,M,-21.3213,M,,*6F
$GPGGA,090024.50,2822.57045960,S,13713.86430336,E,1,05,2.87,160.00,M,-21.3213,M,,*67
$GPGGA,090024.60,2822.57052973,S,13713.86300772,E,1,05,2.87,160.00,M,-21.3213,M,,*60
$GPGGA,090024.70,2822.57060028,S,13713.86171216,E,1,05,2.87,160.00,M,-21.3213,M,,*64
$GPGGA,090024.80,2822.57067136,S,13713.86041670,E,1,05,2.87,160.00,M,-21.3213,M,,*64
$GPGGA,090024.90,2822.57074308,S,13713.85912137,E,1,05,2.87,160.00,M,-21.3213,M,,*60
$GPGGA,090025.00,2822.57081561,S,13713.85782619,E,1,05,2.87,160.00,M,-21.3213,M,,*67
$GPGGA,090025.10,2822.57088213,S,13713.85665347,E,1,05,2.87,160.00,M,-21.3213,M,,*6B
$GPGGA,090025.20,2822.57095674,S,13713.85535870,E,1,05,2.87,160.00,M,-21.3213,M,,*68
$GPGGA,090025.30,2822.57103284,S,13713.85406421,E,1,05,2.87,160.00,M,-21.3213,M,,*65
$GPGGA,090025.40,2822.57111077,S,13713.85277007,E,1,05,2.87,160.00,M,-21.3213,M,,*6F
$GPGGA,090025.50,2822.57119085,S,13713.85147633,E,1,05,2.87,160.00,M,-21.3213,M,,*6A
$GPGGA,090025.60,2822.57126504,S,13713.85030510,E,1,05,2.87,160.00,M,-21.3213,M,,*6A
$GPGGA,090025.70,2822.57134846,S,13713.84901199,E,1,05,2.87,160.00,M,-21.3213,M,,*6C
$GPGGA,090025.80,2822.57143317,S,13713.84771911,E,1,05,2.87,160.00,M,-21.3213,M,,*6D
$GPGGA,090025.90,2822.57151891,S,13713.84642641,E,1,05,2.87,160.00,M,-21.3213,M,,*61
$GPGGA,090026.00,2822.57160549,S,13713.84513387,E,1,05,2.87,160.00,M,-21.3213,M,,*69
$GPGGA,090026.10,2822.57169274,S,13713.84384145,E,1,05,2.87,160.00,M,-21.3213,M,,*6C
$GPGGA,090026.20,2822.57177223,S,13713.84267121,E,1,05,2.87,160.00,M,-21.3213,M,,*6C
$GPGGA,090026.30,2822.57186044,S,13713.84137897,E,1,05,2.87,160.00,M,-21.3213,M,,*62
$GPGGA,090026.40,2822.57194901,S,13713.84008678,E,1,05,2.87,160.00,M,-21.3213,M,,*6C
$GPGGA,090026.50,2822.57203789,S,13713.83879465,E,1,05,2.87,160.00,M,-21.3213,M,,*69
$GPGGA,090026.60,2822.57212700,S,13713.83750257,E,1,05,2.87,160.00,M,-21.3213,M,,*68
$GPGGA,090026.70,2822.57221631,S,13713.83621051,E,1,05,2.87,160.00,M,-21.3213,M,,*69
$GPGGA,090026.80,2822.57229732,S,13713.83504055,E,1,05,2.87,160.00,M,-21.3213,M,,*6C
$GPGGA,090026.90,2822.57238690,S,13713.83374855,E,1,05,2.87,160.00,M,-21.3213,M,,*6D
$GPGGA,090027.00,2822.57247660,S,13713.83245656,E,1,05,2.87,160.00,M,-21.3213,M,,*6C
$GPGGA,090027.10,2822.57256639,S,13713.83116459,E,1,05,2.87,160.00,M,-21.3213,M,,*69
$GPGGA,090027.20,2822.57265626,S,13713.82987263,E,1,05,2.87,160.00,M,-21.3213,M,,*6A
$GPGGA,090027.30,2822.57274620,S,13713.82858068,E,1,05,2.87,160.00,M,-21.3213,M,,*67
$GPGGA,090027.40,2822.57282769,S,13713.82741080,E,1,05,2.87,160.00,M,-21.3213,M,,*64
$GPGGA,090027.50,2822.57291774,S,13713.82611887,E,1,05,2.87,160.00,M,-21.3213,M,,*60
$GPGGA,090027.60,2822.57300784,S,13713.82482695,E,1,05,2.87,160.00,M,-21.3213,M,,*60
$GPGGA,090027.70,2822.57309799,S,13713.82353503,E,1,05,2.87,160.00,M,-21.3213,M,,*63
$GPGGA,090027.80,2822.57318820,S,13713.82224312,E,1,05,2.87,160.00,M,-21.3213,M,,*66
$GPGGA,090027.90,2822.57327848,S,13713.82095121,E,1,05,2.87,160.00,M,-21.3213,M,,*6F
$GPGGA,090028.00,2822.57336028,S,13713.81978136,E,1,05,2.87,160.00,M,-21.3213,M,,*68
$GPGGA,090028.10,2822.57345069,S,13713.81848947,E,1,05,2.87,160.00,M,-21.3213,M,,*64
$GPGGA,090028.20,2822.57354120,S,13713.81719758,E,1,05,2.87,160.00,M,-21.3213,M,,*60
$GPGGA,090028.30,2822.57363182,S,13713.81590570,E,1,05,2.87,160.00,M,-21.3213,M,,*66
$GPGGA,090028.40,2822.57372258,S,13713.81461383,E,1,05,2.87,160.00,M,-21.3213,M,,*60
$GPGGA,090028.50,2822.57381350,S,13713.81332197,E,1,05,2.87,160.00,M,-21.3213,M,,*62
$GPGGA,090028.60,2822.57389601,S,13713.81215217,E,1,05,2.87,160.00,M,-21.3213,M,,*67
$GPGGA,090028.70,2822.57398736,S,13713.81086034,E,1,05,2.87,160.00,M,-21.3213,M,,*68
$GPGGA,090028.80,2822.57407901,S,13713.80956852,E,1,05,2.87,160.00,M,-21.3213,M,,*61
$GPGGA,090028.90,2822.57417104,S,13713.80827674,E,1,05,2.87,160.00,M,-21.3213,M,,*61
$GPGGA,090029.00,2822.57426352,S,13713.80698498,E,1,05,2.87,160.00,M,-21.3213,M,,*60
$GPGGA,090029.10,2822.57434776,S,13713.80581529,E,1,05,2.87,160.00,M,-21.3213,M,,*60
$GPGGA,090029.20,2822.57444145,S,13713.80452360,E,1,05,2.87,160.00,M,-21.3213,M,,*66
$GPGGA,090029.30,2822.57453599,S,13713.80323197,E,1,05,2.87,160.00,M,-21.3213,M,,*6F
$GPGGA,090029.40,2822.57463159,S,13713.80194040,E,1,05,2.87,160.00,M,-21.3213,M,,*66
$GPGGA,090029.50,2822.57472849,S,13713.80064891,E,1,05,2.87,160.00,M,-21.3213,M,,*65
$GPGGA,090029.60,2822.57482701,S,13713.79935751,E,1,05,2.87,160.00,M,-21.3213,M,,*62
$GPGGA,090029.70,2822.57491785,S,13713.79818819,E,1,05,2.87,160.00,M,-21.3213,M,,*60
$GPGGA,090029.80,2822.57501976,S,13713.79689698,E,1,05,2.87,160.00,M,-21.3213,M,,*64
$GPGGA,090029.90,2822.57512303,S,13713.79560584,E,1,05,2.87,160.00,M,-21.3213,M,,*65
$GPGGA,090030.00,2822.57522741,S,13713.79431476,E,1,05,2.87,160.00,M,-21.3213,M,,*6C
$GPGGA,090030.10,2822.57533268,S,13713.79302372,E,1,05,2.87,160.00,M,-21.3213,M,,*67
$GPGGA,090030.20,2822.57543867,S,13713.79173272,E,1,05,2.87,160.00,M,-21.3213,M,,*63
$GPGGA,090030.30,2822.57553516,S,13713.79056369,E,1,05,2.87,160.00,M,-21.3213,M,,*65
$GPGGA,090030.40,2822.57564216,S,13713.78927274,E,1,05,2.87,160.00,M,-21.3213,M,,*62
$GPGGA,090030.50,2822.57574956,S,13713.78798180,E,1,05,2.87,160.00,M,-21.3213,M,,*6F
$GPGGA,090030.60,2822.57585727,S,13713.78669089,E,1,05,2.87,160.00,M,-21.3213,M,,*6D
$GPGGA,090030.70,2822.57596524,S,13713.78539998,E,1,05,2.87,160.00,M,-21.3213,M,,*60
$GPGGA,090030.80,2822.57607342,S,13713.78410909,E,1,05,2.87,160.00,M,-21.3213,M,,*60
$GPGGA,090030.90,2822.57617153,S,13713.78294013,E,1,05,2.87,160.00,M,-21.3213,M,,*6A
$GPGGA,090031.00,2822.57628000,S,13713.78164925,E,1,05,2.87,160.00,M,-21.3213,M,,*69
$GPGGA,090031.10,2822.57638859,S,13713.78035838,E,1,05,2.87,160.00,M,-21.3213,M,,*65
$GPGGA,090031.20,2822.57649728,S,13713.77906751,E,1,05,2.87,160.00,M,-21.3213,M,,*6F
$GPGGA,090031.30,2822.57660605,S,13713.77777665,E,1,05,2.87,160.00,M,-21.3213,M,,*65
$GPGGA,090031.40,2822.57671489,S,13713.77648579,E,1,05,2.87,160.00,M,-21.3213,M,,*67
$GPGGA,090031.50,2822.57681350,S,13713.77531686,E,1,05,2.87,160.00,M,-21.3213,M,,*64
$GPGGA,090031.60,2822.57692245,S,13713.77402602,E,1,05,2.87,160.00,M,-21.3213,M,,*6D
$GPGGA,090031.70,2822.57703145,S,13713.77273517,E,1,05,2.87,160.00,M,-21.3213,M,,*61
$GPGGA,090031.80,2822.57714051,S,13713.77144434,E,1,05,2.87,160.00,M,-21.3213,M,,*6B
$GPGGA,090031.90,2822.57724961,S,13713.77015351,E,1,05,2.87,160.00,M,-21.3213,M,,*62
$GPGGA,090032.00,2822.57734847,S,13713.76898460,E,1,05,2.87,160.00,M,-21.3213,M,,*65
$GPGGA,090032.10,2822.57745769,S,13713.76769379,E,1,05,2.87,160.00,M,-21.3213,M,,*6F
$GPGGA,090032.20,2822.57756698,S,13713.76640299,E,1,05,2.87,160.00,M,-21.3213,M,,*64
$GPGGA,090032.30,2822.57767636,S,13713.76511220,E,1,05,2.87,160.00,M,-21.3213,M,,*66
$GPGGA,090032.40,2822.57778583,S,13713.76382142,E,1,05,2.87,160.00,M,-21.3213,M,,*69
$GPGGA,090032.50,2822.57789543,S,13713.76253067,E,1,05,2.87,160.00,M,-21.3213,M,,*61
$GPGGA,090032.60,2822.57799480,S,13713.76136186,E,1,05,2.87,160.00,M,-21.3213,M,,*63
$GPGGA,090032.70,2822.57810471,S,13713.76007116,E,1,05,2.87,160.00,M,-21.3213,M,,*68
$GPGGA,090032.80,2822.57821483,S,13713.75878050,E,1,05,2.87,160.00,M,-21.3213,M,,*68
$GPGGA,090032.90,2822.57832522,S,13713.75748988,E,1,05,2.87,160.00,M,-21.3213,M,,*61
$GPGGA,090033.00,2822.57843593,S,13713.75619933,E,1,05,2.87,160.00,M,-21.3213,M,,*60
$GPGGA,090033.10,2822.57854705,S,13713.75490884,E,1,05,2.87,160.00,M,-21.3213,M,,*64
$GPGGA,090033.20,2822.57864811,S,13713.75374032,E,1,05,2.87,160.00,M,-21.3213,M,,*66
$GPGGA,090033.30,2822.57876029,S,13713.75245002,E,1,05,2.87,160.00,M,-21.3213,M,,*67
$GPGGA,090033.40,2822.57887322,S,13713.75115985,E,1,05,2.87,160.00,M,-21.3213,M,,*66
$GPGGA,090033.50,2822.57898707,S,13713.74986984,E,1,05,2.87,160.00,M,-21.3213,M,,*68
$GPGGA,090033.60,2822.57910208,S,13713.74858003,E,1,05,2.87,160.00,M,-21.3213,M,,*64
$GPGGA,090033.70,2822.57920743,S,13713.74741227,E,1,05,2.87,160.00,M,-21.3213,M,,*6F
$GPGGA,090033.80,2822.57932543,S,13713.74612296,E,1,05,2.87,160.00,M,-21.3213,M,,*6C
$GPGGA,090033.90,2822.57944544,S,13713.74483400,E,1,05,2.87,160.00,M,-21.3213,M,,*68
$GPGGA,090034.00,2822.57956724,S,13713.74354533,E,1,05,2.87,160.00,M,-21.3213,M,,*6D
$GPGGA,090034.10,2822.57969048,S,13713.74225689,E,1,05,2.87,160.00,M,-21.3213,M,,*68
$GPGGA,090034.20,2822.57981489,S,13713.74096865,E,1,05,2.87,160.00,M,-21.3213,M,,*62
$GPGGA,090034.30,2822.57992836,S,13713.73980225,E,1,05,2.87,160.00,M,-21.3213,M,,*6E
$GPGGA,090034.40,2822.58005441,S,13713.73851427,E,1,05,2.87,160.00,M,-21.3213,M,,*64
$GPGGA,090034.50,2822.58018109,S,13713.73722639,E,1,05,2.87,160.00,M,-21.3213,M,,*66
$GPGGA,090034.60,2822.58030828,S,13713.73593859,E,1,05,2.87,160.00,M,-21.3213,M,,*65
$GPGGA,090034.70,2822.58043588,S,13713.73465085,E,1,05,2.87,160.00,M,-21.3213,M,,*66
$GPGGA,090034.80,2822.58056382,S,13713.73336317,E,1,05,2.87,160.00,M,-21.3213,M,,*68
$GPGGA,090034.90,2822.58067991,S,13713.73219720,E,1,05,2.87,160.00,M,-21.3213,M,,*6F
$GPGGA,090035.00,2822.58080831,S,13713.73090959,E,1,05,2.87,160.00,M,-21.3213,M,,*66
$GPGGA,090035.10,2822.58093691,S,13713.72962201,E,1,05,2.87,160.00,M,-21.3213,M,,*62
$GPGGA,090035.20,2822.58106565,S,13713.72833445,E,1,05,2.87,160.00,M,-21.3213,M,,*67
$GPGGA,090035.30,2822.58119451,S,13713.72704692,E,1,05,2.87,160.00,M,-21.3213,M,,*6D
$GPGGA,090035.40,2822.58132348,S,13713.72575940,E,1,05,2.87,160.00,M,-21.3213,M,,*68
$GPGGA,090035.50,2822.58144033,S,13713.72459354,E,1,05,2.87,160.00,M,-21.3213,M,,*67
$GPGGA,090035.60,2822.58156945,S,13713.72330604,E,1,05,2.87,160.00,M,-21.3213,M,,*67
$GPGGA,090035.70,2822.58169863,S,13713.72201854,E,1,05,2.87,160.00,M,-21.3213,M,,*67
$GPGGA,090035.80,2822.58182786,S,13713.72073106,E,1,05,2.87,160.00,M,-21.3213,M,,*60
$GPGGA,090035.90,2822.58195716,S,13713.71944358,E,1,05,2.87,160.00,M,-21.3213,M,,*69
$GPGGA,090036.00,2822.58208650,S,13713.71815610,E,1,05,2.87,160.00,M,-21.3213,M,,*6B
$GPGGA,090036.10,2822.58220367,S,13713.71699028,E,1,05,2.87,160.00,M,-21.3213,M,,*66
$GPGGA,090036.20,2822.58233311,S,13713.71570281,E,1,05,2.87,160.00,M,-21.3213,M,,*63
$GPGGA,090036.30,2822.58246262,S,13713.71441535,E,1,05,2.87,160.00,M,-21.3213,M,,*6E
$GPGGA,090036.40,2822.58259219,S,13713.71312789,E,1,05,2.87,160.00,M,-21.3213,M,,*6F
$GPGGA,090036.50,2822.58272185,S,13713.71184043,E,1,05,2.87,160.00,M,-21.3213,M,,*6D
$GPGGA,090036.60,2822.58285160,S,13713.71055298,E,1,05,2.87,160.00,M,-21.3213,M,,*64
$GPGGA,090036.70,2822.58296919,S,13713.70938717,E,1,05,2.87,160.00,M,-21.3213,M,,*60
$GPGGA,090036.80,2822.58309918,S,13713.70809973,E,1,05,2.87,160.00,M,-21.3213,M,,*66
$GPGGA,090036.90,2822.58322934,S,13713.70681228,E,1,05,2.87,160.00,M,-21.3213,M,,*6B
$GPGGA,090037.00,2822.58335970,S,13713.70552485,E,1,05,2.87,160.00,M,-21.3213,M,,*69
$GPGGA,090037.10,2822.58349032,S,13713.70423742,E,1,05,2.87,160.00,M,-21.3213,M,,*63
$GPGGA,090037.20,2822.58362124,S,13713.70295000,E,1,05,2.87,160.00,M,-21.3213,M,,*65
$GPGGA,090037.30,2822.58374013,S,13713.70178422,E,1,05,2.87,160.00,M,-21.3213,M,,*62
$GPGGA,090037.40,2822.58387186,S,13713.70049682,E,1,05,2.87,160.00,M,-21.3213,M,,*6F
$GPGGA,090037.50,2822.58400417,S,13713.69920944,E,1,05,2.87,160.00,M,-21.3213,M,,*60
$GPGGA,090037.60,2822.58413719,S,13713.69792207,E,1,05,2.87,160.00,M,-21.3213,M,,*67
$GPGGA,090037.70,2822.58427109,S,13713.69663472,E,1,05,2.87,160.00,M,-21.3213,M,,*6D
$GPGGA,090037.80,2822.58440607,S,13713.69534740,E,1,05,2.87,160.00,M,-21.3213,M,,*69
$GPGGA,090037.90,2822.58452945,S,13713.69418170,E,1,05,2.87,160.00,M,-21.3213,M,,*68
$GPGGA,090038.00,2822.58466727,S,13713.69289443,E,1,05,2.87,160.00,M,-21.3213,M,,*68
$GPGGA,090038.10,2822.58480698,S,13713.69160719,E,1,05,2.87,160.00,M,-21.3213,M,,*6C
$GPGGA,090038.20,2822.58494834,S,13713.69031999,E,1,05,2.87,160.00,M,-21.3213,M,,*61
$GPGGA,090038.30,2822.58509105,S,13713.68903280,E,1,05,2.87,160.00,M,-21.3213,M,,*64
$GPGGA,090038.40,2822.58523483,S,13713.68774564,E,1,05,2.87,160.00,M,-21.3213,M,,*63
$GPGGA,090038.50,2822.58536580,S,13713.68658001,E,1,05,2.87,160.00,M,-21.3213,M,,*6D
$GPGGA,090038.60,2822.58551111,S,13713.68529286,E,1,05,2.87,160.00,M,-21.3213,M,,*6B
$GPGGA,090038.70,2822.58565700,S,13713.68400572,E,1,05,2.87,160.00,M,-21.3213,M,,*6D
$GPGGA,090038.80,2822.58580337,S,13713.68271858,E,1,05,2.87,160.00,M,-21.3213,M,,*6C
$GPGGA,090038.90,2822.58595012,S,13713.68143145,E,1,05,2.87,160.00,M,-21.3213,M,,*6A
$GPGGA,090039.00,2822.58608328,S,13713.68026584,E,1,05,2.87,160.00,M,-21.3213,M,,*64
$GPGGA,090039.10,2822.58623057,S,13713.67897871,E,1,05,2.87,160.00,M,-21.3213,M,,*6D
$GPGGA,090039.20,2822.58637807,S,13713.67769159,E,1,05,2.87,160.00,M,-21.3213,M,,*6B
$GPGGA,090039.30,2822.58652573,S,13713.67640446,E,1,05,2.87,160.00,M,-21.3213,M,,*66
$GPGGA,090039.40,2822.58667354,S,13713.67511735,E,1,05,2.87,160.00,M,-21.3213,M,,*64
$GPGGA,090039.50,2822.58682146,S,13713.67383023,E,1,05,2.87,160.00,M,-21.3213,M,,*62
$GPGGA,090039.60,2822.58695550,S,13713.67266463,E,1,05,2.87,160.00,M,-21.3213,M,,*6E
$GPGGA,090039.70,2822.58710359,S,13713.67137752,E,1,05,2.87,160.00,M,-21.3213,M,,*6A
$GPGGA,090039.80,2822.58725175,S,13713.67009041,E,1,05,2.87,160.00,M,-21.3213,M,,*66
$GPGGA,090039.90,2822.58739997,S,13713.66880331,E,1,05,2.87,160.00,M,-21.3213,M,,*62
$GPGGA,090040.00,2822.58754825,S,13713.66751621,E,1,05,2.87,160.00,M,-21.3213,M,,*61
$GPGGA,090040.10,2822.58768257,S,13713.66635063,E,1,05,2.87,160.00,M,-21.3213,M,,*63
$GPGGA,090040.20,2822.58783095,S,13713.66506355,E,1,05,2.87,160.00,M,-21.3213,M,,*6C
$GPGGA,090040.30,2822.58797937,S,13713.66377647,E,1,05,2.87,160.00,M,-21.3213,M,,*6F
$GPGGA,090040.40,2822.58812786,S,13713.66248941,E,1,05,2.87,160.00,M,-21.3213,M,,*6A
$GPGGA,090040.50,2822.58827641,S,13713.66120236,E,1,05,2.87,160.00,M,-21.3213,M,,*61
$GPGGA,090040.60,2822.58841100,S,13713.66003684,E,1,05,2.87,160.00,M,-21.3213,M,,*6D
$GPGGA,090040.70,2822.58855970,S,13713.65874982,E,1,05,2.87,160.00,M,-21.3213,M,,*64
$GPGGA,090040.80,2822.58870849,S,13713.65746284,E,1,05,2.87,160.00,M,-21.3213,M,,*64
$GPGGA,090040.90,2822.58885741,S,13713.65617589,E,1,05,2.87,160.00,M,-21.3213,M,,*67
$GPGGA,090041.00,2822.58900648,S,13713.65488897,E,1,05,2.87,160.00,M,-21.3213,M,,*6D
$GPGGA,090041.10,2822.58915573,S,13713.65360211,E,1,05,2.87,160.00,M,-21.3213,M,,*66
$GPGGA,090041.20,2822.58929107,S,13713.65243679,E,1,05,2.87,160.00,M,-21.3213,M,,*67
$GPGGA,090041.30,2822.58944079,S,13713.65115006,E,1,05,2.87,160.00,M,-21.3213,M,,*6B
$GPGGA,090041.40,2822.58959083,S,13713.64986341,E,1,05,2.87,160.00,M,-21.3213,M,,*66
$GPGGA,090041.50,2822.58974128,S,13713.64857689,E,1,05,2.87,160.00,M,-21.3213,M,,*64
$GPGGA,090041.60,2822.58989238,S,13713.64728923,E,1,05,2.87,160.00,M,-21.3213,M,,*6F
$GPGGA,090041.70,2822.59002961,S,13713.64612445,E,1,05,2.87,160.00,M,-21.3213,M,,*67
$GPGGA,090041.80,2822.59018187,S,13713.64483842,E,1,05,2.87,160.00,M,-21.3213,M,,*62
$GPGGA,090041.90,2822.59033507,S,13713.64355266,E,1,05,2.87,160.00,M,-21.3213,M,,*66
$GPGGA,090042.00,2822.59048942,S,13713.64226720,E,1,05,2.87,160.00,M,-21.3213,M,,*6F
$GPGGA,090042.10,2822.59064519,S,13713.64098214,E,1,05,2.87,160.00,M,-21.3213,M,,*67
$GPGGA,090042.20,2822.59080273,S,13713.63969756,E,1,05,2.87,160.00,M,-21.3213,M,,*66
$GPGGA,090042.30,2822.59094712,S,13713.63853478,E,1,05,2.87,160.00,M,-21.3213,M,,*67
$GPGGA,090042.40,2822.59110824,S,13713.63725117,E,1,05,2.87,160.00,M,-21.3213,M,,*65
$GPGGA,090042.50,2822.59127080,S,13713.63596794,E,1,05,2.87,160.00,M,-21.3213,M,,*61
$GPGGA,090042.60,2822.59143450,S,13713.63468502,E,1,05,2.87,160.00,M,-21.3213,M,,*64
$GPGGA,090042.70,2822.59159914,S,13713.63340234,E,1,05,2.87,160.00,M,-21.3213,M,,*6C
$GPGGA,090042.80,2822.59174887,S,13713.63224102,E,1,05,2.87,160.00,M,-21.3213,M,,*62
$GPGGA,090042.90,2822.59191482,S,13713.63095869,E,1,05,2.87,160.00,M,-21.3213,M,,*6D
$GPGGA,090043.00,2822.59208127,S,13713.62967649,E,1,05,2.87,160.00,M,-21.3213,M,,*65
$GPGGA,090043.10,2822.59224813,S,13713.62839440,E,1,05,2.87,160.00,M,-21.3213,M,,*65
$GPGGA,090043.20,2822.59241532,S,13713.62711239,E,1,05,2.87,160.00,M,-21.3213,M,,*66
$GPGGA,090043.30,2822.59258278,S,13713.62583045,E,1,05,2.87,160.00,M,-21.3213,M,,*66
$GPGGA,090043.40,2822.59273460,S,13713.62466969,E,1,05,2.87,160.00,M,-21.3213,M,,*6A
$GPGGA,090043.50,2822.59290244,S,13713.62338785,E,1,05,2.87,160.00,M,-21.3213,M,,*66
$GPGGA,090043.60,2822.59307042,S,13713.62210605,E,1,05,2.87,160.00,M,-21.3213,M,,*6C
$GPGGA,090043.70,2822.59323853,S,13713.62082428,E,1,05,2.87,160.00,M,-21.3213,M,,*67
$GPGGA,090043.80,2822.59340674,S,13713.61954254,E,1,05,2.87,160.00,M,-21.3213,M,,*6A
$GPGGA,090043.90,2822.59357503,S,13713.61826081,E,1,05,2.87,160.00,M,-21.3213,M,,*60
$GPGGA,090044.00,2822.59372748,S,13713.61710021,E,1,05,2.87,160.00,M,-21.3213,M,,*64
$GPGGA,090044.10,2822.59389590,S,13713.61581851,E,1,05,2.87,160.00,M,-21.3213,M,,*63
$GPGGA,090044.20,2822.59406438,S,13713.61453683,E,1,05,2.87,160.00,M,-21.3213,M,,*6C
$GPGGA,090044.30,2822.59423292,S,13713.61325516,E,1,05,2.87,160.00,M,-21.3213,M,,*65
$GPGGA,090044.40,2822.59440151,S,13713.61197351,E,1,05,2.87,160.00,M,-21.3213,M,,*65
$GPGGA,090044.50,2822.59457015,S,13713.61069186,E,1,05,2.87,160.00,M,-21.3213,M,,*6B
$GPGGA,090044.60,2822.59472291,S,13713.60953131,E,1,05,2.87,160.00,M,-21.3213,M,,*6C
$GPGGA,090044.70,2822.59489167,S,13713.60824968,E,1,05,2.87,160.00,M,-21.3213,M,,*66
$GPGGA,090044.80,2822.59506051,S,13713.60696806,E,1,05,2.87,160.00,M,-21.3213,M,,*65
$GPGGA,090044.90,2822.59522943,S,13713.60568645,E,1,05,2.87,160.00,M,-21.3213,M,,*63
$GPGGA,090045.00,2822.59539845,S,13713.60440485,E,1,05,2.87,160.00,M,-21.3213,M,,*63
$GPGGA,090045.10,2822.59556760,S,13713.60312327,E,1,05,2.87,160.00,M,-21.3213,M,,*6C
$GPGGA,090045.20,2822.59572089,S,13713.60196279,E,1,05,2.87,160.00,M,-21.3213,M,,*6D
$GPGGA,090045.30,2822.59589036,S,13713.60068125,E,1,05,2.87,160.00,M,-21.3213,M,,*66
$GPGGA,090045.40,2822.59606004,S,13713.59939973,E,1,05,2.87,160.00,M,-21.3213,M,,*68
$GPGGA,090045.50,2822.59623000,S,13713.59811825,E,1,05,2.87,160.00,M,-21.3213,M,,*63
$GPGGA,090045.60,2822.59640030,S,13713.59683680,E,1,05,2.87,160.00,M,-21.3213,M,,*62
$GPGGA,090045.70,2822.59657101,S,13713.59555541,E,1,05,2.87,160.00,M,-21.3213,M,,*60
$GPGGA,090045.80,2822.59672603,S,13713.59439513,E,1,05,2.87,160.00,M,-21.3213,M,,*61
$GPGGA,090045.90,2822.59689782,S,13713.59311386,E,1,05,2.87,160.00,M,-21.3213,M,,*6B
$GPGGA,090046.00,2822.59707038,S,13713.59183268,E,1,05,2.87,160.00,M,-21.3213,M,,*68
$GPGGA,090046.10,2822.59724390,S,13713.59055160,E,1,05,2.87,160.00,M,-21.3213,M,,*68
$GPGGA,090046.20,2822.59741859,S,13713.58927066,E,1,05,2.87,160.00,M,-21.3213,M,,*6C
$GPGGA,090046.30,2822.59759474,S,13713.58798988,E,1,05,2.87,160.00,M,-21.3213,M,,*64
$GPGGA,090046.40,2822.59775579,S,13713.58683026,E,1,05,2.87,160.00,M,-21.3213,M,,*67
$GPGGA,090046.50,2822.59793559,S,13713.58554988,E,1,05,2.87,160.00,M,-21.3213,M,,*68
$GPGGA,090046.60,2822.59811715,S,13713.58426969,E,1,05,2.87,160.00,M,-21.3213,M,,*6F
$GPGGA,090046.70,2822.59830013,S,13713.58298964,E,1,05,2.87,160.00,M,-21.3213,M,,*62
$GPGGA,090046.80,2822.59848428,S,13713.58170972,E,1,05,2.87,160.00,M,-21.3213,M,,*6C
$GPGGA,090046.90,2822.59866935,S,13713.58042989,E,1,05,2.87,160.00,M,-21.3213,M,,*64
$GPGGA,090047.00,2822.59883760,S,13713.57927100,E,1,05,2.87,160.00,M,-21.3213,M,,*65
$GPGGA,090047.10,2822.59902399,S,13713.57799131,E,1,05,2.87,160.00,M,-21.3213,M,,*67
$GPGGA,090047.20,2822.59921089,S,13713.57671167,E,1,05,2.87,160.00,M,-21.3213,M,,*63
$GPGGA,090047.30,2822.59939819,S,13713.57543206,E,1,05,2.87,160.00,M,-21.3213,M,,*6C
$GPGGA,090047.40,2822.59958582,S,13713.57415250,E,1,05,2.87,160.00,M,-21.3213,M,,*62
$GPGGA,090047.50,2822.59975597,S,13713.57299379,E,1,05,2.87,160.00,M,-21.3213,M,,*60
$GPGGA,090047.60,2822.59994407,S,13713.57171427,E,1,05,2.87,160.00,M,-21.3213,M,,*6D
$GPGGA,090047.70,2822.60013235,S,13713.57043476,E,1,05,2.87,160.00,M,-21.3213,M,,*63
$GPGGA,090047.80,2822.60032078,S,13713.56915528,E,1,05,2.87,160.00,M,-21.3213,M,,*65
$GPGGA,090047.90,2822.60050932,S,13713.56787580,E,1,05,2.87,160.00,M,-21.3213,M,,*60
$GPGGA,090048.00,2822.60069797,S,13713.56659634,E,1,05,2.87,160.00,M,-21.3213,M,,*63
$GPGGA,090048.10,2822.60086888,S,13713.56543771,E,1,05,2.87,160.00,M,-21.3213,M,,*6A
$GPGGA,090048.20,2822.60105768,S,13713.56415826,E,1,05,2.87,160.00,M,-21.3213,M,,*6D
$GPGGA,090048.30,2822.60124655,S,13713.56287883,E,1,05,2.87,160.00,M,-21.3213,M,,*62
$GPGGA,090048.40,2822.60143547,S,13713.56159940,E,1,05,2.87,160.00,M,-21.3213,M,,*6A
$GPGGA,090048.50,2822.60162444,S,13713.56031998,E,1,05,2.87,160.00,M,-21.3213,M,,*60
$GPGGA,090048.60,2822.60181346,S,13713.55904057,E,1,05,2.87,160.00,M,-21.3213,M,,*6D
$GPGGA,090048.70,2822.60198468,S,13713.55788199,E,1,05,2.87,160.00,M,-21.3213,M,,*66
$GPGGA,090048.80,2822.60217381,S,13713.55660260,E,1,05,2.87,160.00,M,-21.3213,M,,*6F
$GPGGA,090048.90,2822.60236300,S,13713.55532322,E,1,05,2.87,160.00,M,-21.3213,M,,*67
$GPGGA,090049.00,2822.60255226,S,13713.55404387,E,1,05,2.87,160.00,M,-21.3213,M,,*64
$GPGGA,090049.10,2822.60274160,S,13713.55276453,E,1,05,2.87,160.00,M,-21.3213,M,,*6A
$GPGGA,090049.20,2822.60291314,S,13713.55160603,E,1,05,2.87,160.00,M,-21.3213,M,,*60
$GPGGA,090049.30,2822.60310268,S,13713.55032674,E,1,05,2.87,160.00,M,-21.3213,M,,*65
$GPGGA,090049.40,2822.60329236,S,13713.54904749,E,1,05,2.87,160.00,M,-21.3213,M,,*61
$GPGGA,090049.50,2822.60348221,S,13713.54776829,E,1,05,2.87,160.00,M,-21.3213,M,,*63
$GPGGA,090049.60,2822.60367226,S,13713.54648914,E,1,05,2.87,160.00,M,-21.3213,M,,*69
$GPGGA,090049.70,2822.60386257,S,13713.54521006,E,1,05,2.87,160.00,M,-21.3213,M,,*67
$GPGGA,090049.80,2822.60403518,S,13713.54405185,E,1,05,2.87,160.00,M,-21.3213,M,,*63
$GPGGA,090049.90,2822.60422615,S,13713.54277295,E,1,05,2.87,160.00,M,-21.3213,M,,*6E
$GPGGA,090050.00,2822.60441760,S,13713.54149418,E,1,05,2.87,160.00,M,-21.3213,M,,*64
$GPGGA,090050.10,2822.60460962,S,13713.54021556,E,1,05,2.87,160.00,M,-21.3213,M,,*6E
$GPGGA,090050.20,2822.60480237,S,13713.53893714,E,1,05,2.87,160.00,M,-21.3213,M,,*6A
$GPGGA,090050.30,2822.60499600,S,13713.53765895,E,1,05,2.87,160.00,M,-21.3213,M,,*63
$GPGGA,090050.40,2822.60517228,S,13713.53650174,E,1,05,2.87,160.00,M,-21.3213,M,,*6C
$GPGGA,090050.50,2822.60536824,S,13713.53522417,E,1,05,2.87,160.00,M,-21.3213,M,,*6E
$GPGGA,090050.60,2822.60556584,S,13713.53394704,E,1,05,2.87,160.00,M,-21.3213,M,,*66
$GPGGA,090050.70,2822.60576530,S,13713.53267040,E,1,05,2.87,160.00,M,-21.3213,M,,*60
$GPGGA,090050.80,2822.60596637,S,13713.53139418,E,1,05,2.87,160.00,M,-21.3213,M,,*64
$GPGGA,090050.90,2822.60614956,S,13713.53023880,E,1,05,2.87,160.00,M,-21.3213,M,,*63
$GPGGA,090051.00,2822.60635288,S,13713.52896316,E,1,05,2.87,160.00,M,-21.3213,M,,*63
$GPGGA,090051.10,2822.60655706,S,13713.52768774,E,1,05,2.87,160.00,M,-21.3213,M,,*69
$GPGGA,090051.20,2822.60676194,S,13713.52641250,E,1,05,2.87,160.00,M,-21.3213,M,,*6F
$GPGGA,090051.30,2822.60696738,S,13713.52513741,E,1,05,2.87,160.00,M,-21.3213,M,,*61
$GPGGA,090051.40,2822.60717328,S,13713.52386243,E,1,05,2.87,160.00,M,-21.3213,M,,*66
$GPGGA,090051.50,2822.60736005,S,13713.52270798,E,1,05,2.87,160.00,M,-21.3213,M,,*63
$GPGGA,090051.60,2822.60756659,S,13713.52143316,E,1,05,2.87,160.00,M,-21.3213,M,,*68
$GPGGA,090051.70,2822.60777338,S,13713.52015841,E,1,05,2.87,160.00,M,-21.3213,M,,*63
$GPGGA,090051.80,2822.60798037,S,13713.51888370,E,1,05,2.87,160.00,M,-21.3213,M,,*67
$GPGGA,090051.90,2822.60818753,S,13713.51760904,E,1,05,2.87,160.00,M,-21.3213,M,,*64
$GPGGA,090052.00,2822.60839482,S,13713.51633441,E,1,05,2.87,160.00,M,-21.3213,M,,*69
$GPGGA,090052.10,2822.60858263,S,13713.51518023,E,1,05,2.87,160.00,M,-21.3213,M,,*6C
$GPGGA,090052.20,2822.60879011,S,13713.51390565,E,1,05,2.87,160.00,M,-21.3213,M,,*6A
$GPGGA,090052.30,2822.60899768,S,13713.51263108,E,1,05,2.87,160.00,M,-21.3213,M,,*6E
$GPGGA,090052.40,2822.60920531,S,13713.51135653,E,1,05,2.87,160.00,M,-21.3213,M,,*6D
$GPGGA,090052.50,2822.60941300,S,13713.51008200,E,1,05,2.87,160.00,M,-21.3213,M,,*62
$GPGGA,090052.60,2822.60962075,S,13713.50880747,E,1,05,2.87,160.00,M,-21.3213,M,,*6E
$GPGGA,090052.70,2822.60980891,S,13713.50765337,E,1,05,2.87,160.00,M,-21.3213,M,,*66
$GPGGA,090052.80,2822.61001675,S,13713.50637886,E,1,05,2.87,160.00,M,-21.3213,M,,*6B
$GPGGA,090052.90,2822.61022465,S,13713.50510436,E,1,05,2.87,160.00,M,-21.3213,M,,*69
$GPGGA,090053.00,2822.61043260,S,13713.50382987,E,1,05,2.87,160.00,M,-21.3213,M,,*6F
$GPGGA,090053.10,2822.61064061,S,13713.50255539,E,1,05,2.87,160.00,M,-21.3213,M,,*6A
$GPGGA,090053.20,2822.61084869,S,13713.50128091,E,1,05,2.87,160.00,M,-21.3213,M,,*69
$GPGGA,090053.30,2822.61103719,S,13713.50012685,E,1,05,2.87,160.00,M,-21.3213,M,,*65
$GPGGA,090053.40,2822.61124544,S,13713.49885240,E,1,05,2.87,160.00,M,-21.3213,M,,*6E
$GPGGA,090053.50,2822.61145381,S,13713.49757795,E,1,05,2.87,160.00,M,-21.3213,M,,*6A
$GPGGA,090053.60,2822.61166233,S,13713.49630352,E,1,05,2.87,160.00,M,-21.3213,M,,*6F
$GPGGA,090053.70,2822.61187102,S,13713.49502911,E,1,05,2.87,160.00,M,-21.3213,M,,*6F
$GPGGA,090053.80,2822.61207992,S,13713.49375472,E,1,05,2.87,160.00,M,-21.3213,M,,*64
$GPGGA,090053.90,2822.61226932,S,13713.49260074,E,1,05,2.87,160.00,M,-21.3213,M,,*6B
$GPGGA,090054.00,2822.61247879,S,13713.49132641,E,1,05,2.87,160.00,M,-21.3213,M,,*68
$GPGGA,090054.10,2822.61268865,S,13713.49005211,E,1,05,2.87,160.00,M,-21.3213,M,,*6D
$GPGGA,090054.20,2822.61289899,S,13713.48877786,E,1,05,2.87,160.00,M,-21.3213,M,,*65
$GPGGA,090054.30,2822.61310995,S,13713.48750366,E,1,05,2.87,160.00,M,-21.3213,M,,*68
$GPGGA,090054.40,2822.61332165,S,13713.48622954,E,1,05,2.87,160.00,M,-21.3213,M,,*67
$GPGGA,090054.50,2822.61351415,S,13713.48507584,E,1,05,2.87,160.00,M,-21.3213,M,,*64
$GPGGA,090054.60,2822.61372780,S,13713.48380189,E,1,05,2.87,160.00,M,-21.3213,M,,*69
$GPGGA,090054.70,2822.61394285,S,13713.48252807,E,1,05,2.87,160.00,M,-21.3213,M,,*61
$GPGGA,090054.80,2822.61415961,S,13713.48125441,E,1,05,2.87,160.00,M,-21.3213,M,,*6C
$GPGGA,090054.90,2822.61437828,S,13713.47998092,E,1,05,2.87,160.00,M,-21.3213,M,,*6A
$GPGGA,090055.00,2822.61457773,S,13713.47882779,E,1,05,2.87,160.00,M,-21.3213,M,,*6D
$GPGGA,090055.10,2822.61479924,S,13713.47755453,E,1,05,2.87,160.00,M,-21.3213,M,,*62
$GPGGA,090055.20,2822.61502184,S,13713.47628137,E,1,05,2.87,160.00,M,-21.3213,M,,*62
$GPGGA,090055.30,2822.61524532,S,13713.47500828,E,1,05,2.87,160.00,M,-21.3213,M,,*60
$GPGGA,090055.40,2822.61546951,S,13713.47373525,E,1,05,2.87,160.00,M,-21.3213,M,,*68
$GPGGA,090055.50,2822.61569428,S,13713.47246227,E,1,05,2.87,160.00,M,-21.3213,M,,*65
$GPGGA,090055.60,2822.61589823,S,13713.47130948,E,1,05,2.87,160.00,M,-21.3213,M,,*6F
$GPGGA,090055.70,2822.61612381,S,13713.47003656,E,1,05,2.87,160.00,M,-21.3213,M,,*6D
$GPGGA,090055.80,2822.61634969,S,13713.46876367,E,1,05,2.87,160.00,M,-21.3213,M,,*66
$GPGGA,090055.90,2822.61657583,S,13713.46749080,E,1,05,2.87,160.00,M,-21.3213,M,,*63
$GPGGA,090056.00,2822.61680218,S,13713.46621795,E,1,05,2.87,160.00,M,-21.3213,M,,*6A
$GPGGA,090056.10,2822.61700731,S,13713.46506525,E,1,05,2.87,160.00,M,-21.3213,M,,*63
$GPGGA,090056.20,2822.61723394,S,13713.46379242,E,1,05,2.87,160.00,M,-21.3213,M,,*62
$GPGGA,090056.30,2822.61746070,S,13713.46251960,E,1,05,2.87,160.00,M,-21.3213,M,,*69
$GPGGA,090056.40,2822.61768755,S,13713.46124680,E,1,05,2.87,160.00,M,-21.3213,M,,*62
$GPGGA,090056.50,2822.61791448,S,13713.45997400,E,1,05,2.87,160.00,M,-21.3213,M,,*63
$GPGGA,090056.60,2822.61812005,S,13713.45882134,E,1,05,2.87,160.00,M,-21.3213,M,,*6E
$GPGGA,090056.70,2822.61834710,S,13713.45754856,E,1,05,2.87,160.00,M,-21.3213,M,,*61
$GPGGA,090056.80,2822.61857421,S,13713.45627579,E,1,05,2.87,160.00,M,-21.3213,M,,*6F
$GPGGA,090056.90,2822.61880137,S,13713.45500302,E,1,05,2.87,160.00,M,-21.3213,M,,*6A
$GPGGA,090057.00,2822.61902859,S,13713.45373027,E,1,05,2.87,160.00,M,-21.3213,M,,*6E
$GPGGA,090057.10,2822.61925586,S,13713.45245753,E,1,05,2.87,160.00,M,-21.3213,M,,*65
$GPGGA,090057.20,2822.61946173,S,13713.45130494,E,1,05,2.87,160.00,M,-21.3213,M,,*64
$GPGGA,090057.30,2822.61968911,S,13713.45003223,E,1,05,2.87,160.00,M,-21.3213,M,,*6E
$GPGGA,090057.40,2822.61991657,S,13713.44875955,E,1,05,2.87,160.00,M,-21.3213,M,,*60
$GPGGA,090057.50,2822.62014412,S,13713.44748689,E,1,05,2.87,160.00,M,-21.3213,M,,*6A
$GPGGA,090057.60,2822.62037176,S,13713.44621427,E,1,05,2.87,160.00,M,-21.3213,M,,*67
$GPGGA,090057.70,2822.62057803,S,13713.44506181,E,1,05,2.87,160.00,M,-21.3213,M,,*64
$GPGGA,090057.80,2822.62080594,S,13713.44378928,E,1,05,2.87,160.00,M,-21.3213,M,,*66
$GPGGA,090057.90,2822.62103403,S,13713.44251681,E,1,05,2.87,160.00,M,-21.3213,M,,*64
$GPGGA,090058.00,2822.62126234,S,13713.44124442,E,1,05,2.87,160.00,M,-21.3213,M,,*6B
$GPGGA,090058.10,2822.62149093,S,13713.43997212,E,1,05,2.87,160.00,M,-21.3213,M,,*68
$GPGGA,090058.20,2822.62169823,S,13713.43882002,E,1,05,2.87,160.00,M,-21.3213,M,,*6C
$GPGGA,090058.30,2822.62192754,S,13713.43754797,E,1,05,2.87,160.00,M,-21.3213,M,,*69
$GPGGA,090058.40,2822.62215735,S,13713.43627610,E,1,05,2.87,160.00,M,-21.3213,M,,*6E
$GPGGA,090058.50,2822.62238779,S,13713.43500445,E,1,05,2.87,160.00,M,-21.3213,M,,*6C
$GPGGA,090058.60,2822.62261901,S,13713.43373306,E,1,05,2.87,160.00,M,-21.3213,M,,*60
$GPGGA,090058.70,2822.62285119,S,13713.43246201,E,1,05,2.87,160.00,M,-21.3213,M,,*6B
$GPGGA,090058.80,2822.62306246,S,13713.43131131,E,1,05,2.87,160.00,M,-21.3213,M,,*64
$GPGGA,090058.90,2822.62329715,S,13713.43004112,E,1,05,2.87,160.00,M,-21.3213,M,,*6D
$GPGGA,090059.00,2822.62353361,S,13713.42877154,E,1,05,2.87,160.00,M,-21.3213,M,,*60
$GPGGA,090059.10,2822.62377205,S,13713.42750263,E,1,05,2.87,160.00,M,-21.3213,M,,*69
$GPGGA,090059.20,2822.62401214,S,13713.42623428,E,1,05,2.87,160.00,M,-21.3213,M,,*60
$GPGGA,090059.30,2822.62423073,S,13713.42508610,E,1,05,2.87,160.00,M,-21.3213,M,,*61
$GPGGA,090059.40,2822.62447316,S,13713.42381854,E,1,05,2.87,160.00,M,-21.3213,M,,*6D
$GPGGA,090059.50,2822.62471649,S,13713.42255127,E,1,05,2.87,160.00,M,-21.3213,M,,*63
$GPGGA,090059.60,2822.62496054,S,13713.42128425,E,1,05,2.87,160.00,M,-21.3213,M,,*6D
$GPGGA,090059.70,2822.62520518,S,13713.42001741,E,1,05,2.87,160.00,M,-21.3213,M,,*66
$GPGGA,090059.80,2822.62545029,S,13713.41875074,E,1,05,2.87,160.00,M,-21.3213,M,,*64
$GPGGA,090059.90,2822.62567259,S,13713.41760382,E,1,05,2.87,160.00,M,-21.3213,M,,*61
$GPGGA,090100.00,2822.62591837,S,13713.41633736,E,1,05,2.87,160.00,M,-21.3213,M,,*62
$GPGGA,090100.10,2822.62616440,S,13713.41507099,E,1,05,2.87,160.00,M,-21.3213,M,,*65
$GPGGA,090100.20,2822.62641065,S,13713.41380469,E,1,05,2.87,160.00,M,-21.3213,M,,*65
$GPGGA,090100.30,2822.62665707,S,13713.41253845,E,1,05,2.87,160.00,M,-21.3213,M,,*6C
$GPGGA,090100.40,2822.62690362,S,13713.41127225,E,1,05,2.87,160.00,M,-21.3213,M,,*6A
$GPGGA,090100.50,2822.62712699,S,13713.41012568,E,1,05,2.87,160.00,M,-21.3213,M,,*68
$GPGGA,090100.60,2822.62737375,S,13713.40885955,E,1,05,2.87,160.00,M,-21.3213,M,,*6E
$GPGGA,090100.70,2822.62762058,S,13713.40759344,E,1,05,2.87,160.00,M,-21.3213,M,,*67
$GPGGA,090100.80,2822.62786749,S,13713.40632735,E,1,05,2.87,160.00,M,-21.3213,M,,*6B
$GPGGA,090100.90,2822.62811446,S,13713.40506129,E,1,05,2.87,160.00,M,-21.3213,M,,*68
$GPGGA,090101.00,2822.62833815,S,13713.40391482,E,1,05,2.87,160.00,M,-21.3213,M,,*66
$GPGGA,090101.10,2822.62858522,S,13713.40264878,E,1,05,2.87,160.00,M,-21.3213,M,,*61
$GPGGA,090101.20,2822.62883235,S,13713.40138276,E,1,05,2.87,160.00,M,-21.3213,M,,*6B
$GPGGA,090101.30,2822.62907952,S,13713.40011675,E,1,05,2.87,160.00,M,-21.3213,M,,*60
$GPGGA,090101.40,2822.62932676,S,13713.39885075,E,1,05,2.87,160.00,M,-21.3213,M,,*65
$GPGGA,090101.50,2822.62957405,S,13713.39758476,E,1,05,2.87,160.00,M,-21.3213,M,,*69
$GPGGA,090101.60,2822.62979805,S,13713.39643838,E,1,05,2.87,160.00,M,-21.3213,M,,*67
$GPGGA,090101.70,2822.63004549,S,13713.39517243,E,1,05,2.87,160.00,M,-21.3213,M,,*65
$GPGGA,090101.80,2822.63029303,S,13713.39390650,E,1,05,2.87,160.00,M,-21.3213,M,,*62
$GPGGA,090101.90,2822.63054068,S,13713.39264060,E,1,05,2.87,160.00,M,-21.3213,M,,*68
$GPGGA,090102.00,2822.63078849,S,13713.39137473,E,1,05,2.87,160.00,M,-21.3213,M,,*64
$GPGGA,090102.10,2822.63103646,S,13713.39010889,E,1,05,2.87,160.00,M,-21.3213,M,,*64
$GPGGA,090102.20,2822.63126120,S,13713.38896267,E,1,05,2.87,160.00,M,-21.3213,M,,*6A
$GPGGA,090102.30,2822.63150963,S,13713.38769693,E,1,05,2.87,160.00,M,-21.3213,M,,*65
$GPGGA,090102.40,2822.63175839,S,13713.38643126,E,1,05,2.87,160.00,M,-21.3213,M,,*6B
$GPGGA,090102.50,2822.63200754,S,13713.38516567,E,1,05,2.87,160.00,M,-21.3213,M,,*6D
$GPGGA,090102.60,2822.63225718,S,13713.38390019,E,1,05,2.87,160.00,M,-21.3213,M,,*65
$GPGGA,090102.70,2822.63250743,S,13713.38263484,E,1,05,2.87,160.00,M,-21.3213,M,,*65
$GPGGA,090102.80,2822.63273468,S,13713.38148914,E,1,05,2.87,160.00,M,-21.3213,M,,*6F
$GPGGA,090102.90,2822.63298651,S,13713.38022411,E,1,05,2.87,160.00,M,-21.3213,M,,*66
$GPGGA,090103.00,2822.63323947,S,13713.37895932,E,1,05,2.87,160.00,M,-21.3213,M,,*60
$GPGGA,090103.10,2822.63349382,S,13713.37769482,E,1,05,2.87,160.00,M,-21.3213,M,,*64
$GPGGA,090103.20,2822.63374989,S,13713.37643066,E,1,05,2.87,160.00,M,-21.3213,M,,*6F
$GPGGA,090103.30,2822.63398340,S,13713.37528623,E,1,05,2.87,160.00,M,-21.3213,M,,*6A
$GPGGA,090103.40,2822.63424277,S,13713.37402274,E,1,05,2.87,160.00,M,-21.3213,M,,*67
$GPGGA,090103.50,2822.63450343,S,13713.37275951,E,1,05,2.87,160.00,M,-21.3213,M,,*69
$GPGGA,090103.60,2822.63476513,S,13713.37149649,E,1,05,2.87,160.00,M,-21.3213,M,,*67
$GPGGA,090103.70,2822.63502768,S,13713.37023363,E,1,05,2.87,160.00,M,-21.3213,M,,*6A
$GPGGA,090103.80,2822.63529091,S,13713.36897091,E,1,05,2.87,160.00,M,-21.3213,M,,*65
$GPGGA,090103.90,2822.63552976,S,13713.36782752,E,1,05,2.87,160.00,M,-21.3213,M,,*6B
$GPGGA,090104.00,2822.63579396,S,13713.36656499,E,1,05,2.87,160.00,M,-21.3213,M,,*64
$GPGGA,090104.10,2822.63605852,S,13713.36530253,E,1,05,2.87,160.00,M,-21.3213,M,,*6D
$GPGGA,090104.20,2822.63632338,S,13713.36404013,E,1,05,2.87,160.00,M,-21.3213,M,,*6D
$GPGGA,090104.30,2822.63658848,S,13713.36277777,E,1,05,2.87,160.00,M,-21.3213,M,,*6B
$GPGGA,090104.40,2822.63682872,S,13713.36163465,E,1,05,2.87,160.00,M,-21.3213,M,,*64
$GPGGA,090104.50,2822.63709417,S,13713.36037236,E,1,05,2.87,160.00,M,-21.3213,M,,*68
$GPGGA,090104.60,2822.63735975,S,13713.35911010,E,1,05,2.87,160.00,M,-21.3213,M,,*65
$GPGGA,090104.70,2822.63762545,S,13713.35784786,E,1,05,2.87,160.00,M,-21.3213,M,,*63
$GPGGA,090104.80,2822.63789123,S,13713.35658564,E,1,05,2.87,160.00,M,-21.3213,M,,*63
$GPGGA,090104.90,2822.63815709,S,13713.35532344,E,1,05,2.87,160.00,M,-21.3213,M,,*6D
$GPGGA,090105.00,2822.63839791,S,13713.35418043,E,1,05,2.87,160.00,M,-21.3213,M,,*67
$GPGGA,090105.10,2822.63866390,S,13713.35291825,E,1,05,2.87,160.00,M,-21.3213,M,,*66
$GPGGA,090105.20,2822.63892994,S,13713.35165609,E,1,05,2.87,160.00,M,-21.3213,M,,*68
$GPGGA,090105.30,2822.63919603,S,13713.35039394,E,1,05,2.87,160.00,M,-21.3213,M,,*63
$GPGGA,090105.40,2822.63946218,S,13713.34913180,E,1,05,2.87,160.00,M,-21.3213,M,,*67
$GPGGA,090105.50,2822.63970324,S,13713.34798884,E,1,05,2.87,160.00,M,-21.3213,M,,*6D
$GPGGA,090105.60,2822.63996950,S,13713.34672673,E,1,05,2.87,160.00,M,-21.3213,M,,*6C
$GPGGA,090105.70,2822.64023582,S,13713.34546464,E,1,05,2.87,160.00,M,-21.3213,M,,*6E
$GPGGA,090105.80,2822.64050221,S,13713.34420257,E,1,05,2.87,160.00,M,-21.3213,M,,*6C
$GPGGA,090105.90,2822.64076870,S,13713.34294052,E,1,05,2.87,160.00,M,-21.3213,M,,*69
$GPGGA,090106.00,2822.64103529,S,13713.34167851,E,1,05,2.87,160.00,M,-21.3213,M,,*65
$GPGGA,090106.10,2822.64127682,S,13713.34053568,E,1,05,2.87,160.00,M,-21.3213,M,,*61
$GPGGA,090106.20,2822.64154369,S,13713.33927375,E,1,05,2.87,160.00,M,-21.3213,M,,*61
$GPGGA,090106.30,2822.64181074,S,13713.33801187,E,1,05,2.87,160.00,M,-21.3213,M,,*6D
$GPGGA,090106.40,2822.64207803,S,13713.33675005,E,1,05,2.87,160.00,M,-21.3213,M,,*69
$GPGGA,090106.50,2822.64234561,S,13713.33548833,E,1,05,2.87,160.00,M,-21.3213,M,,*61
$GPGGA,090106.60,2822.64258822,S,13713.33434582,E,1,05,2.87,160.00,M,-21.3213,M,,*6F
$GPGGA,090106.70,2822.64285655,S,13713.33308431,E,1,05,2.87,160.00,M,-21.3213,M,,*61
$GPGGA,090106.80,2822.64312541,S,13713.33182296,E,1,05,2.87,160.00,M,-21.3213,M,,*6C
$GPGGA,090106.90,2822.64339492,S,13713.33056179,E,1,05,2.87,160.00,M,-21.3213,M,,*61
$GPGGA,090107.00,2822.64366525,S,13713.32930087,E,1,05,2.87,160.00,M,-21.3213,M,,*66
$GPGGA,090107.10,2822.64393658,S,13713.32804023,E,1,05,2.87,160.00,M,-21.3213,M,,*6C
$GPGGA,090107.20,2822.64418336,S,13713.32689894,E,1,05,2.87,160.00,M,-21.3213,M,,*69
$GPGGA,090107.30,2822.64445732,S,13713.32563905,E,1,05,2.87,160.00,M,-21.3213,M,,*6E
$GPGGA,090107.40,2822.64473315,S,13713.32437971,E,1,05,2.87,160.00,M,-21.3213,M,,*6E
$GPGGA,090107.50,2822.64501101,S,13713.32312093,E,1,05,2.87,160.00,M,-21.3213,M,,*69
$GPGGA,090107.60,2822.64529058,S,13713.32186264,E,1,05,2.87,160.00,M,-21.3213,M,,*68
$GPGGA,090107.70,2822.64554496,S,13713.32072350,E,1,05,2.87,160.00,M,-21.3213,M,,*69
$GPGGA,090107.80,2822.64582693,S,13713.31946588,E,1,05,2.87,160.00,M,-21.3213,M,,*64
$GPGGA,090107.90,2822.64610983,S,13713.31820851,E,1,05,2.87,160.00,M,-21.3213,M,,*6B
$GPGGA,090108.00,2822.64639347,S,13713.31695135,E,1,05,2.87,160.00,M,-21.3213,M,,*6F
$GPGGA,090108.10,2822.64667772,S,13713.31569436,E,1,05,2.87,160.00,M,-21.3213,M,,*61
$GPGGA,090108.20,2822.64696245,S,13713.31443750,E,1,05,2.87,160.00,M,-21.3213,M,,*67
$GPGGA,090108.30,2822.64722064,S,13713.31329941,E,1,05,2.87,160.00,M,-21.3213,M,,*6C
$GPGGA,090108.40,2822.64750606,S,13713.31204274,E,1,05,2.87,160.00,M,-21.3213,M,,*6F
$GPGGA,090108.50,2822.64779175,S,13713.31078615,E,1,05,2.87,160.00,M,-21.3213,M,,*6C
$GPGGA,090108.60,2822.64807765,S,13713.30952961,E,1,05,2.87,160.00,M,-21.3213,M,,*62
$GPGGA,090108.70,2822.64836373,S,13713.30827312,E,1,05,2.87,160.00,M,-21.3213,M,,*6F
$GPGGA,090108.80,2822.64862291,S,13713.30713530,E,1,05,2.87,160.00,M,-21.3213,M,,*62
$GPGGA,090108.90,2822.64890924,S,13713.30587888,E,1,05,2.87,160.00,M,-21.3213,M,,*6A
$GPGGA,090109.00,2822.64919566,S,13713.30462249,E,1,05,2.87,160.00,M,-21.3213,M,,*65
$GPGGA,090109.10,2822.64948217,S,13713.30336612,E,1,05,2.87,160.00,M,-21.3213,M,,*6D
$GPGGA,090109.20,2822.64976875,S,13713.30210977,E,1,05,2.87,160.00,M,-21.3213,M,,*64
$GPGGA,090109.30,2822.65005539,S,13713.30085344,E,1,05,2.87,160.00,M,-21.3213,M,,*68
$GPGGA,090109.40,2822.65031501,S,13713.29971575,E,1,05,2.87,160.00,M,-21.3213,M,,*6D
$GPGGA,090109.50,2822.65060175,S,13713.29845945,E,1,05,2.87,160.00,M,-21.3213,M,,*66
$GPGGA,090109.60,2822.65088854,S,13713.29720316,E,1,05,2.87,160.00,M,-21.3213,M,,*69
$GPGGA,090109.70,2822.65117538,S,13713.29594690,E,1,05,2.87,160.00,M,-21.3213,M,,*6E
$GPGGA,090109.80,2822.65146227,S,13713.29469065,E,1,05,2.87,160.00,M,-21.3213,M,,*63
$GPGGA,090109.90,2822.65174922,S,13713.29343442,E,1,05,2.87,160.00,M,-21.3213,M,,*63
$GPGGA,090110.00,2822.65200913,S,13713.29229683,E,1,05,2.87,160.00,M,-21.3213,M,,*62
$GPGGA,090110.10,2822.65229622,S,13713.29104065,E,1,05,2.87,160.00,M,-21.3213,M,,*67
$GPGGA,090110.20,2822.65258340,S,13713.28978451,E,1,05,2.87,160.00,M,-21.3213,M,,*62
$GPGGA,090110.30,2822.65287069,S,13713.28852841,E,1,05,2.87,160.00,M,-21.3213,M,,*6D
$GPGGA,090110.40,2822.65315811,S,13713.28727236,E,1,05,2.87,160.00,M,-21.3213,M,,*60
