$GPGGA,090000.00,2823.06024816,S,13715.15879940,E,1,05,2.87,160.00,M,-21.3213,M,,*60
$GPGGA,090000.10,2823.06024816,S,13715.15879940,E,1,05,2.87,160.00,M,-21.3213,M,,*61
$GPGGA,090000.20,2823.06024816,S,13715.15879940,E,1,05,2.87,160.00,M,-21.3213,M,,*62
$GPGGA,090000.30,2823.06024816,S,13715.15879940,E,1,05,2.87,160.00,M,-21.3213,M,,*63
$GPGGA,090000.40,2823.06024816,S,13715.15879940,E,1,05,2.87,160.00,M,-21.3213,M,,*64
$GPGGA,090000.50,2823.06024816,S,13715.15879940,E,1,05,2.87,160.00,M,-21.3213,M,,*65
$GPGGA,090000.60,2823.06024816,S,13715.15879940,E,1,05,2.87,160.00,M,-21.3213,M,,*66
$GPGGA,090000.70,2823.06024816,S,13715.15879940,E,1,05,2.87,160.00,M,-21.3213,M,,*67
$GPGGA,090000.80,2823.06024816,S,13715.15879940,E,1,05,2.87,160.00,M,-21.3213,M,,*68
$GPGGA,090000.90,2823.06024816,S,13715.15879940,E,1,05,2.87,160.00,M,-21.3213,M,,*69
$GPGGA,090001.00,2823.06024816,S,13715.15879940,E,1,05,2.87,160.00,M,-21.3213,M,,*61
$GPGGA,090001.10,2823.06024816,S,13715.15879940,E,1,05,2.87,160.00,M,-21.3213,M,,*60
$GPGGA,090001.20,2823.06024816,S,13715.15879940,E,1,05,2.87,160.00,M,-21.3213,M,,*63
$GPGGA,090001.30,2823.06024816,S,13715.15879940,E,1,05,2.87,160.00,M,-21.3213,M,,*62
$GPGGA,090001.40,2823.06024816,S,13715.15879940,E,1,05,2.87,160.00,M,-21.3213,M,,*65
$GPGGA,090001.50,2823.06024816,S,13715.15879940,E,1,05,2.87,160.00,M,-21.3213,M,,*64
$GPGGA,090001.60,2823.06024816,S,13715.15879940,E,1,05,2.87,160.00,M,-21.3213,M,,*67
$GPGGA,090001.70,2823.06024816,S,13715.15879940,E,1,05,2.87,160.00,M,-21.3213,M,,*66
$GPGGA,090001.80,2823.06024816,S,13715.15879940,E,1,05,2.87,160.00,M,-21.3213,M,,*69
$GPGGA,090001.90,2823.06024816,S,13715.15879940,E,1,05,2.87,160.00,M,-21.3213,M,,*68
$GPGGA,090002.00,2823.06024816,S,13715.15879940,E,1,05,2.87,160.00,M,-21.3213,M,,*62
$GPGGA,090002.10,2823.06024816,S,13715.15879940,E,1,05,2.87,160.00,M,-21.3213,M,,*63
$GPGGA,090002.20,2823.06024816,S,13715.15879940,E,1,05,2.87,160.00,M,-21.3213,M,,*60
$GPGGA,090002.30,2823.06024816,S,13715.15879940,E,1,05,2.87,160.00,M,-21.3213,M,,*61
$GPGGA,090002.40,2823.06024816,S,13715.15879940,E,1,05,2.87,160.00,M,-21.3213,M,,*66
$GPGGA,090002.50,2823.06024816,S,13715.15879940,E,1,05,2.87,160.00,M,-21.3213,M,,*67
$GPGGA,090002.60,2823.06024816,S,13715.15879940,E,1,05,2.87,160.00,M,-21.3213,M,,*64
$GPGGA,090002.70,2823.06024816,S,13715.15879940,E,1,05,2.87,160.00,M,-21.3213,M,,*65
$GPGGA,090002.80,2823.06024816,S,13715.15879940,E,1,05,2.87,160.00,M,-21.3213,M,,*6A
$GPGGA,090002.90,2823.06024816,S,13715.15879940,E,1,05,2.87,160.00,M,-21.3213,M,,*6B
$GPGGA,090003.00,2823.06024816,S,13715.15879940,E,1,05,2.87,160.00,M,-21.3213,M,,*63
$GPGGA,090003.10,2823.06024816,S,13715.15879940,E,1,05,2.87,160.00,M,-21.3213,M,,*62
$GPGGA,090003.20,2823.06024816,S,13715.15879940,E,1,05,2.87,160.00,M,-21.3213,M,,*61
$GPGGA,090003.30,2823.06024816,S,13715.15879940,E,1,05,2.87,160.00,M,-21.3213,M,,*60
$GPGGA,090003.40,2823.06024816,S,13715.15879940,E,1,05,2.87,160.00,M,-21.3213,M,,*67
$GPGGA,090003.50,2823.06024816,S,13715.15879940,E,1,05,2.87,160.00,M,-21.3213,M,,*66
$GPGGA,090003.60,2823.06024816,S,13715.15879940,E,1,05,2.87,160.00,M,-21.3213,M,,*65
$GPGGA,090003.70,2823.06024816,S,13715.15879940,E,1,05,2.87,160.00,M,-21.3213,M,,*64
$GPGGA,090003.80,2823.06024816,S,13715.15879940,E,1,05,2.87,160.00,M,-21.3213,M,,*6B
$GPGGA,090003.90,2823.06024816,S,13715.15879940,E,1,05,2.87,160.00,M,-21.3213,M,,*6A
$GPGGA,090004.00,2823.06024816,S,13715.15879940,E,1,05,2.87,160.00,M,-21.3213,M,,*64
$GPGGA,090004.10,2823.06024816,S,13715.15879940,E,1,05,2.87,160.00,M,-21.3213,M,,*65
$GPGGA,090004.20,2823.06024816,S,13715.15879940,E,1,05,2.87,160.00,M,-21.3213,M,,*66
$GPGGA,090004.30,2823.06024816,S,13715.15879940,E,1,05,2.87,160.00,M,-21.3213,M,,*67
$GPGGA,090004.40,2823.06024816,S,13715.15879940,E,1,05,2.87,160.00,M,-21.3213,M,,*60
$GPGGA,090004.50,2823.06024816,S,13715.15879940,E,1,05,2.87,160.00,M,-21.3213,M,,*61
$GPGGA,090004.60,2823.06024816,S,13715.15879940,E,1,05,2.87,160.00,M,-21.3213,M,,*62
$GPGGA,090004.70,2823.06024816,S,13715.15879940,E,1,05,2.87,160.00,M,-21.3213,M,,*63
$GPGGA,090004.80,2823.06024816,S,13715.15879940,E,1,05,2.87,160.00,M,-21.3213,M,,*6C
$GPGGA,090004.90,2823.06024816,S,13715.15879940,E,1,05,2.87,160.00,M,-21.3213,M,,*6D
$GPGGA,090005.00,2823.06024816,S,13715.15879940,E,1,05,2.87,160.00,M,-21.3213,M,,*65
$GPGGA,090005.10,2823.06024816,S,13715.15879940,E,1,05,2.87,160.00,M,-21.3213,M,,*64
$GPGGA,090005.20,2823.06024816,S,13715.15879940,E,1,05,2.87,160.00,M,-21.3213,M,,*67
$GPGGA,090005.30,2823.06024816,S,13715.15879940,E,1,05,2.87,160.00,M,-21.3213,M,,*66
$GPGGA,090005.40,2823.06024816,S,13715.15879940,E,1,05,2.87,160.00,M,-21.3213,M,,*61
$GPGGA,090005.50,2823.06024816,S,13715.15879940,E,1,05,2.87,160.00,M,-21.3213,M,,*60
$GPGGA,090005.60,2823.06024816,S,13715.15879940,E,1,05,2.87,160.00,M,-21.3213,M,,*63
$GPGGA,090005.70,2823.06024816,S,13715.15879940,E,1,05,2.87,160.00,M,-21.3213,M,,*62
$GPGGA,090005.80,2823.06024816,S,13715.15879940,E,1,05,2.87,160.00,M,-21.3213,M,,*6D
$GPGGA,090005.90,2823.06024816,S,13715.15879940,E,1,05,2.87,160.00,M,-21.3213,M,,*6C
$GPGGA,090006.00,2823.06024816,S,13715.15879940,E,1,05,2.87,160.00,M,-21.3213,M,,*66
$GPGGA,090006.10,2823.06024816,S,13715.15879940,E,1,05,2.87,160.00,M,-21.3213,M,,*67
$GPGGA,090006.20,2823.06024816,S,13715.15879940,E,1,05,2.87,160.00,M,-21.3213,M,,*64
$GPGGA,090006.30,2823.06024816,S,13715.15879940,E,1,05,2.87,160.00,M,-21.3213,M,,*65
$GPGGA,090006.40,2823.06024816,S,13715.15879940,E,1,05,2.87,160.00,M,-21.3213,M,,*62
$GPGGA,090006.50,2823.06024816,S,13715.15879940,E,1,05,2.87,160.00,M,-21.3213,M,,*63
$GPGGA,090006.60,2823.06024816,S,13715.15879940,E,1,05,2.87,160.00,M,-21.3213,M,,*60
$GPGGA,090006.70,2823.06024816,S,13715.15879940,E,1,05,2.87,160.00,M,-21.3213,M,,*61
$GPGGA,090006.80,2823.06024816,S,13715.15879940,E,1,05,2.87,160.00,M,-21.3213,M,,*6E
$GPGGA,090006.90,2823.06024816,S,13715.15879940,E,1,05,2.87,160.00,M,-21.3213,M,,*6F
$GPGGA,090007.00,2823.06024816,S,13715.15879940,E,1,05,2.87,160.00,M,-21.3213,M,,*67
$GPGGA,090007.10,2823.06024816,S,13715.15879940,E,1,05,2.87,160.00,M,-21.3213,M,,*66
$GPGGA,090007.20,2823.06024816,S,13715.15879940,E,1,05,2.87,160.00,M,-21.3213,M,,*65
$GPGGA,090007.30,2823.06024816,S,13715.15879940,E,1,05,2.87,160.00,M,-21.3213,M,,*64
$GPGGA,090007.40,2823.06024816,S,13715.15879940,E,1,05,2.87,160.00,M,-21.3213,M,,*63
$GPGGA,090007.50,2823.06024816,S,13715.15879940,E,1,05,2.87,160.00,M,-21.3213,M,,*62
$GPGGA,090007.60,2823.06024816,S,13715.15879940,E,1,05,2.87,160.00,M,-21.3213,M,,*61
$GPGGA,090007.70,2823.06024816,S,13715.15879940,E,1,05,2.87,160.00,M,-21.3213,M,,*60
$GPGGA,090007.80,2823.06024816,S,13715.15879940,E,1,05,2.87,160.00,M,-21.3213,M,,*6F
$GPGGA,090007.90,2823.06025962,S,13715.15877608,E,1,05,2.87,160.00,M,-21.3213,M,,*60
$GPGGA,090008.00,2823.06030209,S,13715.15868970,E,1,05,2.87,160.00,M,-21.3213,M,,*6A
$GPGGA,090008.10,2823.06034938,S,13715.15859353,E,1,05,2.87,160.00,M,-21.3213,M,,*6F
$GPGGA,090008.20,2823.06043404,S,13715.15842135,E,1,05,2.87,160.00,M,-21.3213,M,,*66
$GPGGA,090008.30,2823.06056396,S,13715.15815709,E,1,05,2.87,160.00,M,-21.3213,M,,*64
$GPGGA,090008.40,2823.06071495,S,13715.15785002,E,1,05,2.87,160.00,M,-21.3213,M,,*68
$GPGGA,090008.50,2823.06089093,S,13715.15749209,E,1,05,2.87,160.00,M,-21.3213,M,,*65
$GPGGA,090008.60,2823.06105855,S,13715.15715118,E,1,05,2.87,160.00,M,-21.3213,M,,*6B
$GPGGA,090008.70,2823.06129330,S,13715.15667373,E,1,05,2.87,160.00,M,-21.3213,M,,*67
$GPGGA,090008.80,2823.06152238,S,13715.15620782,E,1,05,2.87,160.00,M,-21.3213,M,,*64
$GPGGA,090008.90,2823.06178526,S,13715.15567316,E,1,05,2.87,160.00,M,-21.3213,M,,*6C
$GPGGA,090009.00,2823.06208390,S,13715.15506576,E,1,05,2.87,160.00,M,-21.3213,M,,*6C
$GPGGA,090009.10,2823.06241977,S,13715.15438265,E,1,05,2.87,160.00,M,-21.3213,M,,*6A
$GPGGA,090009.20,2823.06279384,S,13715.15362185,E,1,05,2.87,160.00,M,-21.3213,M,,*61
$GPGGA,090009.30,2823.06315983,S,13715.15287747,E,1,05,2.87,160.00,M,-21.3213,M,,*64
$GPGGA,090009.40,2823.06356278,S,13715.15205793,E,1,05,2.87,160.00,M,-21.3213,M,,*68
$GPGGA,090009.50,2823.06395429,S,13715.15126164,E,1,05,2.87,160.00,M,-21.3213,M,,*68
$GPGGA,090009.60,2823.06443041,S,13715.15029329,E,1,05,2.87,160.00,M,-21.3213,M,,*68
$GPGGA,090009.70,2823.06489323,S,13715.14935198,E,1,05,2.87,160.00,M,-21.3213,M,,*65
$GPGGA,090009.80,2823.06539138,S,13715.14833880,E,1,05,2.87,160.00,M,-21.3213,M,,*6F
$GPGGA,090009.90,2823.06592432,S,13715.14725489,E,1,05,2.87,160.00,M,-21.3213,M,,*6D
$GPGGA,090010.00,2823.06650082,S,13715.14608237,E,1,05,2.87,160.00,M,-21.3213,M,,*63
$GPGGA,090010.10,2823.06702928,S,13715.14500756,E,1,05,2.87,160.00,M,-21.3213,M,,*64
$GPGGA,090010.20,2823.06756314,S,13715.14392176,E,1,05,2.87,160.00,M,-21.3213,M,,*6A
$GPGGA,090010.30,2823.06810140,S,13715.14282701,E,1,05,2.87,160.00,M,-21.3213,M,,*63
$GPGGA,090010.40,2823.06864322,S,13715.14172502,E,1,05,2.87,160.00,M,-21.3213,M,,*6C
$GPGGA,090010.50,2823.06924002,S,13715.14051121,E,1,05,2.87,160.00,M,-21.3213,M,,*6C
$GPGGA,090010.60,2823.06978716,S,13715.13939840,E,1,05,2.87,160.00,M,-21.3213,M,,*6A
$GPGGA,090010.70,2823.07033617,S,13715.13828179,E,1,05,2.87,160.00,M,-21.3213,M,,*6E
$GPGGA,090010.80,2823.07083435,S,13715.13726856,E,1,05,2.87,160.00,M,-21.3213,M,,*6D
$GPGGA,090010.90,2823.07138605,S,13715.13614648,E,1,05,2.87,160.00,M,-21.3213,M,,*6D
$GPGGA,090011.00,2823.07193875,S,13715.13502236,E,1,05,2.87,160.00,M,-21.3213,M,,*64
$GPGGA,090011.10,2823.07249227,S,13715.13389659,E,1,05,2.87,160.00,M,-21.3213,M,,*64
$GPGGA,090011.20,2823.07304644,S,13715.13276948,E,1,05,2.87,160.00,M,-21.3213,M,,*60
$GPGGA,090011.30,2823.07360115,S,13715.13164129,E,1,05,2.87,160.00,M,-21.3213,M,,*6F
$GPGGA,090011.40,2823.07415629,S,13715.13051222,E,1,05,2.87,160.00,M,-21.3213,M,,*6A
$GPGGA,090011.50,2823.07471178,S,13715.12938245,E,1,05,2.87,160.00,M,-21.3213,M,,*6C
$GPGGA,090011.60,2823.07526756,S,13715.12825210,E,1,05,2.87,160.00,M,-21.3213,M,,*6B
$GPGGA,090011.70,2823.07577098,S,13715.12722823,E,1,05,2.87,160.00,M,-21.3213,M,,*69
$GPGGA,090011.80,2823.07632717,S,13715.12609706,E,1,05,2.87,160.00,M,-21.3213,M,,*64
$GPGGA,090011.90,2823.07688351,S,13715.12496560,E,1,05,2.87,160.00,M,-21.3213,M,,*64
$GPGGA,090012.00,2823.07743997,S,13715.12383389,E,1,05,2.87,160.00,M,-21.3213,M,,*6A
$GPGGA,090012.10,2823.07799654,S,13715.12270199,E,1,05,2.87,160.00,M,-21.3213,M,,*62
$GPGGA,090012.20,2823.07855319,S,13715.12156995,E,1,05,2.87,160.00,M,-21.3213,M,,*61
$GPGGA,090012.30,2823.07905730,S,13715.12054477,E,1,05,2.87,160.00,M,-21.3213,M,,*69
$GPGGA,090012.40,2823.07961407,S,13715.11941252,E,1,05,2.87,160.00,M,-21.3213,M,,*64
$GPGGA,090012.50,2823.08017090,S,13715.11828021,E,1,05,2.87,160.00,M,-21.3213,M,,*60
$GPGGA,090012.60,2823.08072778,S,13715.11714786,E,1,05,2.87,160.00,M,-21.3213,M,,*6B
$GPGGA,090012.70,2823.08128469,S,13715.11601548,E,1,05,2.87,160.00,M,-21.3213,M,,*62
$GPGGA,090012.80,2823.08184164,S,13715.11488311,E,1,05,2.87,160.00,M,-21.3213,M,,*6A
$GPGGA,090012.90,2823.08234600,S,13715.11385775,E,1,05,2.87,160.00,M,-21.3213,M,,*6A
$GPGGA,090013.00,2823.08290302,S,13715.11272543,E,1,05,2.87,160.00,M,-21.3213,M,,*65
$GPGGA,090013.10,2823.08346009,S,13715.11159318,E,1,05,2.87,160.00,M,-21.3213,M,,*64
$GPGGA,090013.20,2823.08401719,S,13715.11046101,E,1,05,2.87,160.00,M,-21.3213,M,,*60
$GPGGA,090013.30,2823.08457435,S,13715.10932896,E,1,05,2.87,160.00,M,-21.3213,M,,*63
$GPGGA,090013.40,2823.08513157,S,13715.10819706,E,1,05,2.87,160.00,M,-21.3213,M,,*6A
$GPGGA,090013.50,2823.08563564,S,13715.10717340,E,1,05,2.87,160.00,M,-21.3213,M,,*6F
$GPGGA,090013.60,2823.08619300,S,13715.10604192,E,1,05,2.87,160.00,M,-21.3213,M,,*68
$GPGGA,090013.70,2823.08675047,S,13715.10491073,E,1,05,2.87,160.00,M,-21.3213,M,,*63
$GPGGA,090013.80,2823.08730806,S,13715.10377992,E,1,05,2.87,160.00,M,-21.3213,M,,*68
$GPGGA,090013.90,2823.08786580,S,13715.10264956,E,1,05,2.87,160.00,M,-21.3213,M,,*6C
$GPGGA,090014.00,2823.08842373,S,13715.10151978,E,1,05,2.87,160.00,M,-21.3213,M,,*66
$GPGGA,090014.10,2823.08898189,S,13715.10039070,E,1,05,2.87,160.00,M,-21.3213,M,,*69
$GPGGA,090014.20,2823.08948749,S,13715.09936919,E,1,05,2.87,160.00,M,-21.3213,M,,*64
$GPGGA,090014.30,2823.09004624,S,13715.09824199,E,1,05,2.87,160.00,M,-21.3213,M,,*6D
$GPGGA,090014.40,2823.09060542,S,13715.09711612,E,1,05,2.87,160.00,M,-21.3213,M,,*66
$GPGGA,090014.50,2823.09116512,S,13715.09599187,E,1,05,2.87,160.00,M,-21.3213,M,,*6B
$GPGGA,090014.60,2823.09172547,S,13715.09486962,E,1,05,2.87,160.00,M,-21.3213,M,,*66
$GPGGA,090014.70,2823.09228663,S,13715.09374986,E,1,05,2.87,160.00,M,-21.3213,M,,*6E
$GPGGA,090014.80,2823.09284877,S,13715.09263316,E,1,05,2.87,160.00,M,-21.3213,M,,*68
$GPGGA,090014.90,2823.09341214,S,13715.09152022,E,1,05,2.87,160.00,M,-21.3213,M,,*6B
$GPGGA,090015.00,2823.09397701,S,13715.09041191,E,1,05,2.87,160.00,M,-21.3213,M,,*63
$GPGGA,090015.10,2823.09454373,S,13715.08930932,E,1,05,2.87,160.00,M,-21.3213,M,,*64
$GPGGA,090015.20,2823.09511273,S,13715.08821374,E,1,05,2.87,160.00,M,-21.3213,M,,*6F
$GPGGA,090015.30,2823.09568452,S,13715.08712674,E,1,05,2.87,160.00,M,-21.3213,M,,*6F
$GPGGA,090015.40,2823.09626336,S,13715.08604354,E,1,05,2.87,160.00,M,-21.3213,M,,*65
$GPGGA,090015.50,2823.09680676,S,13715.08504544,E,1,05,2.87,160.00,M,-21.3213,M,,*6D
$GPGGA,090015.60,2823.09738164,S,13715.08401302,E,1,05,2.87,160.00,M,-21.3213,M,,*68
$GPGGA,090015.70,2823.09793417,S,13715.08304733,E,1,05,2.87,160.00,M,-21.3213,M,,*6D
$GPGGA,090015.80,2823.09840587,S,13715.08224669,E,1,05,2.87,160.00,M,-21.3213,M,,*66
$GPGGA,090015.90,2823.09891311,S,13715.08141347,E,1,05,2.87,160.00,M,-21.3213,M,,*6B
$GPGGA,090016.00,2823.09939816,S,13715.08064667,E,1,05,2.87,160.00,M,-21.3213,M,,*6F
$GPGGA,090016.10,2823.09986087,S,13715.07994538,E,1,05,2.87,160.00,M,-21.3213,M,,*6A
$GPGGA,090016.20,2823.10030090,S,13715.07930820,E,1,05,2.87,160.00,M,-21.3213,M,,*69
$GPGGA,090016.30,2823.10071778,S,13715.07873322,E,1,05,2.87,160.00,M,-21.3213,M,,*63
$GPGGA,090016.40,2823.10111088,S,13715.07821811,E,1,05,2.87,160.00,M,-21.3213,M,,*67
$GPGGA,090016.50,2823.10154832,S,13715.07767736,E,1,05,2.87,160.00,M,-21.3213,M,,*69
$GPGGA,090016.60,2823.10189310,S,13715.07727614,E,1,05,2.87,160.00,M,-21.3213,M,,*64
$GPGGA,090016.70,2823.10221133,S,13715.07692592,E,1,05,2.87,160.00,M,-21.3213,M,,*65
$GPGGA,090016.80,2823.10250175,S,13715.07662345,E,1,05,2.87,160.00,M,-21.3213,M,,*6D
$GPGGA,090016.90,2823.10276301,S,13715.07636553,E,1,05,2.87,160.00,M,-21.3213,M,,*69
$GPGGA,090017.00,2823.10299311,S,13715.07614956,E,1,05,2.87,160.00,M,-21.3213,M,,*68
$GPGGA,090017.10,2823.10317962,S,13715.07598222,E,1,05,2.87,160.00,M,-21.3213,M,,*6F
$GPGGA,090017.20,2823.10324407,S,13715.07592598,E,1,05,2.87,160.00,M,-21.3213,M,,*6E
$GPGGA,090017.30,2823.10352231,S,13715.07569260,E,1,05,2.87,160.00,M,-21.3213,M,,*69
$GPGGA,090017.40,2823.10370263,S,13715.07554883,E,1,05,2.87,160.00,M,-21.3213,M,,*60
$GPGGA,090017.50,2823.10401101,S,13715.07531493,E,1,05,2.87,160.00,M,-21.3213,M,,*69
$GPGGA,090017.60,2823.10428083,S,13715.07512145,E,1,05,2.87,160.00,M,-21.3213,M,,*65
$GPGGA,090017.70,2823.10468245,S,13715.07485023,E,1,05,2.87,160.00,M,-21.3213,M,,*66
$GPGGA,090017.80,2823.10504697,S,13715.07461923,E,1,05,2.87,160.00,M,-21.3213,M,,*6A
$GPGGA,090017.90,2823.10555151,S,13715.07431990,E,1,05,2.87,160.00,M,-21.3213,M,,*6F
$GPGGA,090018.00,2823.10611200,S,13715.07401085,E,1,05,2.87,160.00,M,-21.3213,M,,*63
$GPGGA,090018.10,2823.10663726,S,13715.07374010,E,1,05,2.87,160.00,M,-21.3213,M,,*6F
$GPGGA,090018.20,2823.10731419,S,13715.07341367,E,1,05,2.87,160.00,M,-21.3213,M,,*60
$GPGGA,090018.30,2823.10805268,S,13715.07308150,E,1,05,2.87,160.00,M,-21.3213,M,,*62
$GPGGA,090018.40,2823.10875623,S,13715.07278422,E,1,05,2.87,160.00,M,-21.3213,M,,*6F
$GPGGA,090018.50,2823.10952084,S,13715.07247861,E,1,05,2.87,160.00,M,-21.3213,M,,*66
$GPGGA,090018.60,2823.11044705,S,13715.07212843,E,1,05,2.87,160.00,M,-21.3213,M,,*64
$GPGGA,090018.70,2823.11133655,S,13715.07180893,E,1,05,2.87,160.00,M,-21.3213,M,,*65
$GPGGA,090018.80,2823.11228819,S,13715.07148185,E,1,05,2.87,160.00,M,-21.3213,M,,*6F
$GPGGA,090018.90,2823.11330199,S,13715.07114696,E,1,05,2.87,160.00,M,-21.3213,M,,*6B
$GPGGA,090019.00,2823.11438773,S,13715.07080075,E,1,05,2.87,160.00,M,-21.3213,M,,*69
$GPGGA,090019.10,2823.11546586,S,13715.07046715,E,1,05,2.87,160.00,M,-21.3213,M,,*63
$GPGGA,090019.20,2823.11655016,S,13715.07013983,E,1,05,2.87,160.00,M,-21.3213,M,,*6C
$GPGGA,090019.30,2823.11764147,S,13715.06981705,E,1,05,2.87,160.00,M,-21.3213,M,,*68
$GPGGA,090019.40,2823.11873651,S,13715.06949856,E,1,05,2.87,160.00,M,-21.3213,M,,*6B
$GPGGA,090019.50,2823.11983549,S,13715.06918333,E,1,05,2.87,160.00,M,-21.3213,M,,*62
$GPGGA,090019.60,2823.12093765,S,13715.06887077,E,1,05,2.87,160.00,M,-21.3213,M,,*62
$GPGGA,090019.70,2823.12204240,S,13715.06856041,E,1,05,2.87,160.00,M,-21.3213,M,,*64
$GPGGA,090019.80,2823.12314926,S,13715.06825188,E,1,05,2.87,160.00,M,-21.3213,M,,*60
$GPGGA,090019.90,2823.12425782,S,13715.06794490,E,1,05,2.87,160.00,M,-21.3213,M,,*6D
$GPGGA,090020.00,2823.12536778,S,13715.06763923,E,1,05,2.87,160.00,M,-21.3213,M,,*65
$GPGGA,090020.10,2823.12647887,S,13715.06733472,E,1,05,2.87,160.00,M,-21.3213,M,,*62
$GPGGA,090020.20,2823.12748569,S,13715.06705990,E,1,05,2.87,160.00,M,-21.3213,M,,*66
$GPGGA,090020.30,2823.12859841,S,13715.06675729,E,1,05,2.87,160.00,M,-21.3213,M,,*65
$GPGGA,090020.40,2823.12971175,S,13715.06645564,E,1,05,2.87,160.00,M,-21.3213,M,,*6F
$GPGGA,090020.50,2823.13082560,S,13715.06615496,E,1,05,2.87,160.00,M,-21.3213,M,,*63
$GPGGA,090020.60,2823.13193988,S,13715.06585529,E,1,05,2.87,160.00,M,-21.3213,M,,*64
$GPGGA,090020.70,2823.13305453,S,13715.06555676,E,1,05,2.87,160.00,M,-21.3213,M,,*67
$GPGGA,090020.80,2823.13406411,S,13715.06528755,E,1,05,2.87,160.00,M,-21.3213,M,,*60
$GPGGA,090020.90,2823.13517931,S,13715.06499165,E,1,05,2.87,160.00,M,-21.3213,M,,*61
$GPGGA,090021.00,2823.13629477,S,13715.06469751,E,1,05,2.87,160.00,M,-21.3213,M,,*66
$GPGGA,090021.10,2823.13741047,S,13715.06440548,E,1,05,2.87,160.00,M,-21.3213,M,,*6E
$GPGGA,090021.20,2823.13852642,S,13715.06411601,E,1,05,2.87,160.00,M,-21.3213,M,,*69
$GPGGA,090021.30,2823.13964263,S,13715.06382967,E,1,05,2.87,160.00,M,-21.3213,M,,*69
$GPGGA,090021.40,2823.14075912,S,13715.06354715,E,1,05,2.87,160.00,M,-21.3213,M,,*6D
$GPGGA,090021.50,2823.14177029,S,13715.06329538,E,1,05,2.87,160.00,M,-21.3213,M,,*69
$GPGGA,090021.60,2823.14288746,S,13715.06302276,E,1,05,2.87,160.00,M,-21.3213,M,,*63
$GPGGA,090021.70,2823.14400513,S,13715.06275713,E,1,05,2.87,160.00,M,-21.3213,M,,*61
$GPGGA,090021.80,2823.14512345,S,13715.06250010,E,1,05,2.87,160.00,M,-21.3213,M,,*6A
$GPGGA,090021.90,2823.14624262,S,13715.06225368,E,1,05,2.87,160.00,M,-21.3213,M,,*67
$GPGGA,090022.00,2823.14736293,S,13715.06202031,E,1,05,2.87,160.00,M,-21.3213,M,,*6B
$GPGGA,090022.10,2823.14848478,S,13715.06180303,E,1,05,2.87,160.00,M,-21.3213,M,,*64
$GPGGA,090022.20,2823.14960878,S,13715.06160557,E,1,05,2.87,160.00,M,-21.3213,M,,*69
$GPGGA,090022.30,2823.15062856,S,13715.06144647,E,1,05,2.87,160.00,M,-21.3213,M,,*6A
$GPGGA,090022.40,2823.15175775,S,13715.06128979,E,1,05,2.87,160.00,M,-21.3213,M,,*6C
$GPGGA,090022.50,2823.15288925,S,13715.06114944,E,1,05,2.87,160.00,M,-21.3213,M,,*66
$GPGGA,090022.60,2823.15402268,S,13715.06102236,E,1,05,2.87,160.00,M,-21.3213,M,,*6A
$GPGGA,090022.70,2823.15515765,S,13715.06090608,E,1,05,2.87,160.00,M,-21.3213,M,,*67
$GPGGA,090022.80,2823.15629380,S,13715.06079861,E,1,05,2.87,160.00,M,-21.3213,M,,*6D
$GPGGA,090022.90,2823.15743079,S,13715.06069836,E,1,05,2.87,160.00,M,-21.3213,M,,*67
$GPGGA,090023.00,2823.15856717,S,13715.06060416,E,1,05,2.87,160.00,M,-21.3213,M,,*6C
$GPGGA,090023.10,2823.15970489,S,13715.06051484,E,1,05,2.87,160.00,M,-21.3213,M,,*65
$GPGGA,090023.20,2823.16084249,S,13715.06042972,E,1,05,2.87,160.00,M,-21.3213,M,,*6B
$GPGGA,090023.30,2823.16187191,S,13715.06035579,E,1,05,2.87,160.00,M,-21.3213,M,,*69
$GPGGA,090023.40,2823.16300832,S,13715.06027720,E,1,05,2.87,160.00,M,-21.3213,M,,*6E
$GPGGA,090023.50,2823.16414359,S,13715.06020154,E,1,05,2.87,160.00,M,-21.3213,M,,*69
$GPGGA,090023.60,2823.16527726,S,13715.06012867,E,1,05,2.87,160.00,M,-21.3213,M,,*6F
$GPGGA,090023.70,2823.16640883,S,13715.06005856,E,1,05,2.87,160.00,M,-21.3213,M,,*68
$GPGGA,090023.80,2823.16753770,S,13715.05999128,E,1,05,2.87,160.00,M,-21.3213,M,,*68
$GPGGA,090023.90,2823.16866315,S,13715.05992706,E,1,05,2.87,160.00,M,-21.3213,M,,*66
$GPGGA,090024.00,2823.16978429,S,13715.05986622,E,1,05,2.87,160.00,M,-21.3213,M,,*6C
$GPGGA,090024.10,2823.17090006,S,13715.05980926,E,1,05,2.87,160.00,M,-21.3213,M,,*67
$GPGGA,090024.20,2823.17200917,S,13715.05975682,E,1,05,2.87,160.00,M,-21.3213,M,,*6D
$GPGGA,090024.30,2823.17321587,S,13715.05970545,E,1,05,2.87,160.00,M,-21.3213,M,,*66
$GPGGA,090024.40,2823.17430597,S,13715.05966531,E,1,05,2.87,160.00,M,-21.3213,M,,*63
$GPGGA,090024.50,2823.17538372,S,13715.05963284,E,1,05,2.87,160.00,M,-21.3213,M,,*6A
$GPGGA,090024.60,2823.17656221,S,13715.05960759,E,1,05,2.87,160.00,M,-21.3213,M,,*63
$GPGGA,090024.70,2823.17765462,S,13715.05959627,E,1,05,2.87,160.00,M,-21.3213,M,,*60
$GPGGA,090024.80,2823.17867391,S,13715.05959902,E,1,05,2.87,160.00,M,-21.3213,M,,*61
$GPGGA,090024.90,2823.17961976,S,13715.05961606,E,1,05,2.87,160.00,M,-21.3213,M,,*64
$GPGGA,090025.00,2823.18049152,S,13715.05964727,E,1,05,2.87,160.00,M,-21.3213,M,,*69
$GPGGA,090025.10,2823.18138590,S,13715.05969875,E,1,05,2.87,160.00,M,-21.3213,M,,*60
$GPGGA,090025.20,2823.18220264,S,13715.05976750,E,1,05,2.87,160.00,M,-21.3213,M,,*63
$GPGGA,090025.30,2823.18294252,S,13715.05985249,E,1,05,2.87,160.00,M,-21.3213,M,,*69
$GPGGA,090025.40,2823.18369677,S,13715.05996750,E,1,05,2.87,160.00,M,-21.3213,M,,*61
$GPGGA,090025.50,2823.18428631,S,13715.06008277,E,1,05,2.87,160.00,M,-21.3213,M,,*6D
$GPGGA,090025.60,2823.18489060,S,13715.06023056,E,1,05,2.87,160.00,M,-21.3213,M,,*6F
$GPGGA,090025.70,2823.18542443,S,13715.06039308,E,1,05,2.87,160.00,M,-21.3213,M,,*6E
$GPGGA,090025.80,2823.18589316,S,13715.06056780,E,1,05,2.87,160.00,M,-21.3213,M,,*6C
$GPGGA,090025.90,2823.18630285,S,13715.06075234,E,1,05,2.87,160.00,M,-21.3213,M,,*6C
$GPGGA,090026.00,2823.18665992,S,13715.06094459,E,1,05,2.87,160.00,M,-21.3213,M,,*69
$GPGGA,090026.10,2823.18697063,S,13715.06114284,E,1,05,2.87,160.00,M,-21.3213,M,,*6D
$GPGGA,090026.20,2823.18717912,S,13715.06129661,E,1,05,2.87,160.00,M,-21.3213,M,,*69
$GPGGA,090026.30,2823.18735833,S,13715.06144541,E,1,05,2.87,160.00,M,-21.3213,M,,*60
$GPGGA,090026.40,2823.18751019,S,13715.06158618,E,1,05,2.87,160.00,M,-21.3213,M,,*67
$GPGGA,090026.50,2823.18762411,S,13715.06170242,E,1,05,2.87,160.00,M,-21.3213,M,,*6B
$GPGGA,090026.60,2823.18760177,S,13715.06167878,E,1,05,2.87,160.00,M,-21.3213,M,,*6A
$GPGGA,090026.70,2823.18771452,S,13715.06180228,E,1,05,2.87,160.00,M,-21.3213,M,,*6F
$GPGGA,090026.80,2823.18785472,S,13715.06197188,E,1,05,2.87,160.00,M,-21.3213,M,,*66
$GPGGA,090026.90,2823.18800425,S,13715.06217452,E,1,05,2.87,160.00,M,-21.3213,M,,*6E
$GPGGA,090027.00,2823.18815865,S,13715.06241064,E,1,05,2.87,160.00,M,-21.3213,M,,*68
$GPGGA,090027.10,2823.18831699,S,13715.06268524,E,1,05,2.87,160.00,M,-21.3213,M,,*68
$GPGGA,090027.20,2823.18851500,S,13715.06308317,E,1,05,2.87,160.00,M,-21.3213,M,,*6F
$GPGGA,090027.30,2823.18867506,S,13715.06345796,E,1,05,2.87,160.00,M,-21.3213,M,,*69
$GPGGA,090027.40,2823.18886501,S,13715.06397919,E,1,05,2.87,160.00,M,-21.3213,M,,*60
$GPGGA,090027.50,2823.18904660,S,13715.06457513,E,1,05,2.87,160.00,M,-21.3213,M,,*63
$GPGGA,090027.60,2823.18921803,S,13715.06525204,E,1,05,2.87,160.00,M,-21.3213,M,,*69
$GPGGA,090027.70,2823.18935840,S,13715.06591545,E,1,05,2.87,160.00,M,-21.3213,M,,*67
$GPGGA,090027.80,2823.18949099,S,13715.06666211,E,1,05,2.87,160.00,M,-21.3213,M,,*62
$GPGGA,090027.90,2823.18961403,S,13715.06749536,E,1,05,2.87,160.00,M,-21.3213,M,,*60
$GPGGA,090028.00,2823.18972619,S,13715.06841733,E,1,05,2.87,160.00,M,-21.3213,M,,*6D
$GPGGA,090028.10,2823.18982668,S,13715.06942901,E,1,05,2.87,160.00,M,-21.3213,M,,*68
$GPGGA,090028.20,2823.18990695,S,13715.07041772,E,1,05,2.87,160.00,M,-21.3213,M,,*6B
$GPGGA,090028.30,2823.18997834,S,13715.07149178,E,1,05,2.87,160.00,M,-21.3213,M,,*6D
$GPGGA,090028.40,2823.19004076,S,13715.07265047,E,1,05,2.87,160.00,M,-21.3213,M,,*66
$GPGGA,090028.50,2823.19008989,S,13715.07377568,E,1,05,2.87,160.00,M,-21.3213,M,,*68
$GPGGA,090028.60,2823.19013663,S,13715.07511017,E,1,05,2.87,160.00,M,-21.3213,M,,*61
$GPGGA,090028.70,2823.19017065,S,13715.07632789,E,1,05,2.87,160.00,M,-21.3213,M,,*66
$GPGGA,090028.80,2823.19020083,S,13715.07767812,E,1,05,2.87,160.00,M,-21.3213,M,,*69
$GPGGA,090028.90,2823.19022306,S,13715.07892192,E,1,05,2.87,160.00,M,-21.3213,M,,*60
$GPGGA,090029.00,2823.19024116,S,13715.08017590,E,1,05,2.87,160.00,M,-21.3213,M,,*61
$GPGGA,090029.10,2823.19025588,S,13715.08143814,E,1,05,2.87,160.00,M,-21.3213,M,,*63
$GPGGA,090029.20,2823.19026782,S,13715.08270708,E,1,05,2.87,160.00,M,-21.3213,M,,*6A
$GPGGA,090029.30,2823.19027750,S,13715.08398144,E,1,05,2.87,160.00,M,-21.3213,M,,*6C
$GPGGA,090029.40,2823.19028533,S,13715.08526019,E,1,05,2.87,160.00,M,-21.3213,M,,*69
$GPGGA,090029.50,2823.19029165,S,13715.08654250,E,1,05,2.87,160.00,M,-21.3213,M,,*67
$GPGGA,090029.60,2823.19029674,S,13715.08782769,E,1,05,2.87,160.00,M,-21.3213,M,,*66
$GPGGA,090029.70,2823.19030082,S,13715.08911519,E,1,05,2.87,160.00,M,-21.3213,M,,*61
$GPGGA,090029.80,2823.19030408,S,13715.09040457,E,1,05,2.87,160.00,M,-21.3213,M,,*6F
$GPGGA,090029.90,2823.19030665,S,13715.09169546,E,1,05,2.87,160.00,M,-21.3213,M,,*6C
$GPGGA,090030.00,2823.19030866,S,13715.09298755,E,1,05,2.87,160.00,M,-21.3213,M,,*6D
$GPGGA,090030.10,2823.19031007,S,13715.09415828,E,1,05,2.87,160.00,M,-21.3213,M,,*64
$GPGGA,090030.20,2823.19031123,S,13715.09545206,E,1,05,2.87,160.00,M,-21.3213,M,,*62
$GPGGA,090030.30,2823.19031203,S,13715.09674643,E,1,05,2.87,160.00,M,-21.3213,M,,*66
$GPGGA,090030.40,2823.19031251,S,13715.09804127,E,1,05,2.87,160.00,M,-21.3213,M,,*6A
$GPGGA,090030.50,2823.19031269,S,13715.09933643,E,1,05,2.87,160.00,M,-21.3213,M,,*60
$GPGGA,090030.60,2823.19031257,S,13715.10063181,E,1,05,2.87,160.00,M,-21.3213,M,,*63
$GPGGA,090030.70,2823.19031220,S,13715.10180490,E,1,05,2.87,160.00,M,-21.3213,M,,*6B
$GPGGA,090030.80,2823.19031150,S,13715.10310044,E,1,05,2.87,160.00,M,-21.3213,M,,*66
$GPGGA,090030.90,2823.19031044,S,13715.10439592,E,1,05,2.87,160.00,M,-21.3213,M,,*61
$GPGGA,090031.00,2823.19030899,S,13715.10569126,E,1,05,2.87,160.00,M,-21.3213,M,,*6F
$GPGGA,090031.10,2823.19030707,S,13715.10698634,E,1,05,2.87,160.00,M,-21.3213,M,,*6F
$GPGGA,090031.20,2823.19030461,S,13715.10828107,E,1,05,2.87,160.00,M,-21.3213,M,,*6D
$GPGGA,090031.30,2823.19030182,S,13715.10945295,E,1,05,2.87,160.00,M,-21.3213,M,,*66
$GPGGA,090031.40,2823.19029797,S,13715.11074658,E,1,05,2.87,160.00,M,-21.3213,M,,*64
$GPGGA,090031.50,2823.19029317,S,13715.11203940,E,1,05,2.87,160.00,M,-21.3213,M,,*6D
$GPGGA,090031.60,2823.19028720,S,13715.11333120,E,1,05,2.87,160.00,M,-21.3213,M,,*63
$GPGGA,090031.70,2823.19027978,S,13715.11462172,E,1,05,2.87,160.00,M,-21.3213,M,,*6A
$GPGGA,090031.80,2823.19027058,S,13715.11591066,E,1,05,2.87,160.00,M,-21.3213,M,,*67
$GPGGA,090031.90,2823.19025920,S,13715.11719763,E,1,05,2.87,160.00,M,-21.3213,M,,*62
$GPGGA,090032.00,2823.19024513,S,13715.11848217,E,1,05,2.87,160.00,M,-21.3213,M,,*68
$GPGGA,090032.10,2823.19022774,S,13715.11976370,E,1,05,2.87,160.00,M,-21.3213,M,,*60
$GPGGA,090032.20,2823.19020629,S,13715.12104152,E,1,05,2.87,160.00,M,-21.3213,M,,*64
$GPGGA,090032.30,2823.19017982,S,13715.12231480,E,1,05,2.87,160.00,M,-21.3213,M,,*60
$GPGGA,090032.40,2823.19014725,S,13715.12358129,E,1,05,2.87,160.00,M,-21.3213,M,,*6F
$GPGGA,090032.50,2823.19010677,S,13715.12485205,E,1,05,2.87,160.00,M,-21.3213,M,,*66
$GPGGA,090032.60,2823.19006050,S,13715.12603207,E,1,05,2.87,160.00,M,-21.3213,M,,*6F
$GPGGA,090032.70,2823.19000764,S,13715.12714133,E,1,05,2.87,160.00,M,-21.3213,M,,*6B
$GPGGA,090032.80,2823.18994045,S,13715.12830065,E,1,05,2.87,160.00,M,-21.3213,M,,*6E
$GPGGA,090032.90,2823.18986371,S,13715.12938976,E,1,05,2.87,160.00,M,-21.3213,M,,*6A
$GPGGA,090033.00,2823.18978806,S,13715.13029123,E,1,05,2.87,160.00,M,-21.3213,M,,*68
$GPGGA,090033.10,2823.18969401,S,13715.13124126,E,1,05,2.87,160.00,M,-21.3213,M,,*6B
$GPGGA,090033.20,2823.18959110,S,13715.13212222,E,1,05,2.87,160.00,M,-21.3213,M,,*6F
$GPGGA,090033.30,2823.18948015,S,13715.13293508,E,1,05,2.87,160.00,M,-21.3213,M,,*6C
$GPGGA,090033.40,2823.18936233,S,13715.13368112,E,1,05,2.87,160.00,M,-21.3213,M,,*6E
$GPGGA,090033.50,2823.18923914,S,13715.13436188,E,1,05,2.87,160.00,M,-21.3213,M,,*6A
$GPGGA,090033.60,2823.18911240,S,13715.13497913,E,1,05,2.87,160.00,M,-21.3213,M,,*63
$GPGGA,090033.70,2823.18898418,S,13715.13553479,E,1,05,2.87,160.00,M,-21.3213,M,,*61
$GPGGA,090033.80,2823.18885682,S,13715.13603084,E,1,05,2.87,160.00,M,-21.3213,M,,*63
$GPGGA,090033.90,2823.18873279,S,13715.13646925,E,1,05,2.87,160.00,M,-21.3213,M,,*68
$GPGGA,090034.00,2823.18864859,S,13715.13674516,E,1,05,2.87,160.00,M,-21.3213,M,,*65
$GPGGA,090034.10,2823.18854202,S,13715.13707236,E,1,05,2.87,160.00,M,-21.3213,M,,*63
$GPGGA,090034.20,2823.18845441,S,13715.13732487,E,1,05,2.87,160.00,M,-21.3213,M,,*6B
$GPGGA,090034.30,2823.18843686,S,13715.13737379,E,1,05,2.87,160.00,M,-21.3213,M,,*66
$GPGGA,090034.40,2823.18830273,S,13715.13773116,E,1,05,2.87,160.00,M,-21.3213,M,,*60
$GPGGA,090034.50,2823.18821378,S,13715.13795434,E,1,05,2.87,160.00,M,-21.3213,M,,*66
$GPGGA,090034.60,2823.18805490,S,13715.13833103,E,1,05,2.87,160.00,M,-21.3213,M,,*60
$GPGGA,090034.70,2823.18786499,S,13715.13875168,E,1,05,2.87,160.00,M,-21.3213,M,,*63
$GPGGA,090034.80,2823.18769031,S,13715.13911597,E,1,05,2.87,160.00,M,-21.3213,M,,*6C
$GPGGA,090034.90,2823.18743191,S,13715.13962356,E,1,05,2.87,160.00,M,-21.3213,M,,*61
$GPGGA,090035.00,2823.18713356,S,13715.14017322,E,1,05,2.87,160.00,M,-21.3213,M,,*6A
$GPGGA,090035.10,2823.18679260,S,13715.14076466,E,1,05,2.87,160.00,M,-21.3213,M,,*62
$GPGGA,090035.20,2823.18646580,S,13715.14130277,E,1,05,2.87,160.00,M,-21.3213,M,,*61
$GPGGA,090035.30,2823.18603512,S,13715.14197839,E,1,05,2.87,160.00,M,-21.3213,M,,*67
$GPGGA,090035.40,2823.18555564,S,13715.14269546,E,1,05,2.87,160.00,M,-21.3213,M,,*66
$GPGGA,090035.50,2823.18509156,S,13715.14336203,E,1,05,2.87,160.00,M,-21.3213,M,,*66
$GPGGA,090035.60,2823.18451323,S,13715.14416310,E,1,05,2.87,160.00,M,-21.3213,M,,*6F
$GPGGA,090035.70,2823.18395229,S,13715.14491537,E,1,05,2.87,160.00,M,-21.3213,M,,*66
$GPGGA,090035.80,2823.18327313,S,13715.14580075,E,1,05,2.87,160.00,M,-21.3213,M,,*6A
$GPGGA,090035.90,2823.18261421,S,13715.14663884,E,1,05,2.87,160.00,M,-21.3213,M,,*66
$GPGGA,090036.00,2823.18190670,S,13715.14752077,E,1,05,2.87,160.00,M,-21.3213,M,,*60
$GPGGA,090036.10,2823.18114153,S,13715.14845812,E,1,05,2.87,160.00,M,-21.3213,M,,*69
$GPGGA,090036.20,2823.18037521,S,13715.14938341,E,1,05,2.87,160.00,M,-21.3213,M,,*6D
$GPGGA,090036.30,2823.17960106,S,13715.15030739,E,1,05,2.87,160.00,M,-21.3213,M,,*62
$GPGGA,090036.40,2823.17881951,S,13715.15123153,E,1,05,2.87,160.00,M,-21.3213,M,,*68
$GPGGA,090036.50,2823.17803335,S,13715.15215414,E,1,05,2.87,160.00,M,-21.3213,M,,*6B
$GPGGA,090036.60,2823.17724281,S,13715.15307625,E,1,05,2.87,160.00,M,-21.3213,M,,*6E
$GPGGA,090036.70,2823.17644873,S,13715.15399798,E,1,05,2.87,160.00,M,-21.3213,M,,*6F
$GPGGA,090036.80,2823.17565177,S,13715.15491939,E,1,05,2.87,160.00,M,-21.3213,M,,*67
$GPGGA,090036.90,2823.17485249,S,13715.15584057,E,1,05,2.87,160.00,M,-21.3213,M,,*63
$GPGGA,090037.00,2823.17412721,S,13715.15667443,E,1,05,2.87,160.00,M,-21.3213,M,,*61
$GPGGA,090037.10,2823.17332465,S,13715.15759533,E,1,05,2.87,160.00,M,-21.3213,M,,*6C
$GPGGA,090037.20,2823.17252088,S,13715.15851614,E,1,05,2.87,160.00,M,-21.3213,M,,*6E
$GPGGA,090037.30,2823.17171613,S,13715.15943688,E,1,05,2.87,160.00,M,-21.3213,M,,*6E
$GPGGA,090037.40,2823.17091062,S,13715.16035760,E,1,05,2.87,160.00,M,-21.3213,M,,*6A
$GPGGA,090037.50,2823.17010453,S,13715.16127834,E,1,05,2.87,160.00,M,-21.3213,M,,*68
$GPGGA,090037.60,2823.16937421,S,13715.16211213,E,1,05,2.87,160.00,M,-21.3213,M,,*6A
$GPGGA,090037.70,2823.16856738,S,13715.16303300,E,1,05,2.87,160.00,M,-21.3213,M,,*67
$GPGGA,090037.80,2823.16776035,S,13715.16395400,E,1,05,2.87,160.00,M,-21.3213,M,,*67
$GPGGA,090037.90,2823.16695322,S,13715.16487517,E,1,05,2.87,160.00,M,-21.3213,M,,*6C
$GPGGA,090038.00,2823.16614610,S,13715.16579657,E,1,05,2.87,160.00,M,-21.3213,M,,*60
$GPGGA,090038.10,2823.16533910,S,13715.16671827,E,1,05,2.87,160.00,M,-21.3213,M,,*6A
$GPGGA,090038.20,2823.16460848,S,13715.16755324,E,1,05,2.87,160.00,M,-21.3213,M,,*6D
$GPGGA,090038.30,2823.16380199,S,13715.16847574,E,1,05,2.87,160.00,M,-21.3213,M,,*6F
$GPGGA,090038.40,2823.16299595,S,13715.16939882,E,1,05,2.87,160.00,M,-21.3213,M,,*65
$GPGGA,090038.50,2823.16219052,S,13715.17032261,E,1,05,2.87,160.00,M,-21.3213,M,,*66
$GPGGA,090038.60,2823.16138587,S,13715.17124731,E,1,05,2.87,160.00,M,-21.3213,M,,*6E
$GPGGA,090038.70,2823.16058223,S,13715.17217312,E,1,05,2.87,160.00,M,-21.3213,M,,*67
$GPGGA,090038.80,2823.15985556,S,13715.17301268,E,1,05,2.87,160.00,M,-21.3213,M,,*6D
$GPGGA,090038.90,2823.15905459,S,13715.17394142,E,1,05,2.87,160.00,M,-21.3213,M,,*6D
$GPGGA,090039.00,2823.15825552,S,13715.17487222,E,1,05,2.87,160.00,M,-21.3213,M,,*6C
$GPGGA,090039.10,2823.15745836,S,13715.17580510,E,1,05,2.87,160.00,M,-21.3213,M,,*6B
$GPGGA,090039.20,2823.15666275,S,13715.17673967,E,1,05,2.87,160.00,M,-21.3213,M,,*66
$GPGGA,090039.30,2823.15594336,S,13715.17758719,E,1,05,2.87,160.00,M,-21.3213,M,,*60
$GPGGA,090039.40,2823.15514993,S,13715.17852416,E,1,05,2.87,160.00,M,-21.3213,M,,*63
$GPGGA,090039.50,2823.15435734,S,13715.17946205,E,1,05,2.87,160.00,M,-21.3213,M,,*63
$GPGGA,090039.60,2823.15356542,S,13715.18040069,E,1,05,2.87,160.00,M,-21.3213,M,,*69
$GPGGA,090039.70,2823.15277404,S,13715.18133993,E,1,05,2.87,160.00,M,-21.3213,M,,*60
$GPGGA,090039.80,2823.15198311,S,13715.18227965,E,1,05,2.87,160.00,M,-21.3213,M,,*61
$GPGGA,090039.90,2823.15126717,S,13715.18313098,E,1,05,2.87,160.00,M,-21.3213,M,,*6A
$GPGGA,090040.00,2823.15047685,S,13715.18407139,E,1,05,2.87,160.00,M,-21.3213,M,,*69
$GPGGA,090040.10,2823.14968755,S,13715.18501114,E,1,05,2.87,160.00,M,-21.3213,M,,*69
$GPGGA,090040.20,2823.14889766,S,13715.18595202,E,1,05,2.87,160.00,M,-21.3213,M,,*6D
$GPGGA,090040.30,2823.14810792,S,13715.18689308,E,1,05,2.87,160.00,M,-21.3213,M,,*62
$GPGGA,090040.40,2823.14731831,S,13715.18783427,E,1,05,2.87,160.00,M,-21.3213,M,,*6E
$GPGGA,090040.50,2823.14660336,S,13715.18868669,E,1,05,2.87,160.00,M,-21.3213,M,,*64
$GPGGA,090040.60,2823.14581392,S,13715.18962808,E,1,05,2.87,160.00,M,-21.3213,M,,*67
$GPGGA,090040.70,2823.14502456,S,13715.19056955,E,1,05,2.87,160.00,M,-21.3213,M,,*64
$GPGGA,090040.80,2823.14423525,S,13715.19151108,E,1,05,2.87,160.00,M,-21.3213,M,,*6A
$GPGGA,090040.90,2823.14344599,S,13715.19245266,E,1,05,2.87,160.00,M,-21.3213,M,,*67
$GPGGA,090041.00,2823.14273130,S,13715.19330536,E,1,05,2.87,160.00,M,-21.3213,M,,*6C
$GPGGA,090041.10,2823.14194211,S,13715.19424702,E,1,05,2.87,160.00,M,-21.3213,M,,*60
$GPGGA,090041.20,2823.14115294,S,13715.19518870,E,1,05,2.87,160.00,M,-21.3213,M,,*63
$GPGGA,090041.30,2823.14036381,S,13715.19613042,E,1,05,2.87,160.00,M,-21.3213,M,,*66
$GPGGA,090041.40,2823.13957469,S,13715.19707215,E,1,05,2.87,160.00,M,-21.3213,M,,*6D
$GPGGA,090041.50,2823.13878560,S,13715.19801391,E,1,05,2.87,160.00,M,-21.3213,M,,*6C
$GPGGA,090041.60,2823.13807104,S,13715.19886675,E,1,05,2.87,160.00,M,-21.3213,M,,*61
$GPGGA,090041.70,2823.13728198,S,13715.19980855,E,1,05,2.87,160.00,M,-21.3213,M,,*6C
$GPGGA,090041.80,2823.13649295,S,13715.20075036,E,1,05,2.87,160.00,M,-21.3213,M,,*6F
$GPGGA,090041.90,2823.13570395,S,13715.20169220,E,1,05,2.87,160.00,M,-21.3213,M,,*6F
$GPGGA,090042.00,2823.13491498,S,13715.20263407,E,1,05,2.87,160.00,M,-21.3213,M,,*6B
$GPGGA,090042.10,2823.13420054,S,13715.20348702,E,1,05,2.87,160.00,M,-21.3213,M,,*6A
$GPGGA,090042.20,2823.13341164,S,13715.20442895,E,1,05,2.87,160.00,M,-21.3213,M,,*67
$GPGGA,090042.30,2823.13262279,S,13715.20537093,E,1,05,2.87,160.00,M,-21.3213,M,,*64
$GPGGA,090042.40,2823.13183401,S,13715.20631295,E,1,05,2.87,160.00,M,-21.3213,M,,*67
$GPGGA,090042.50,2823.13104529,S,13715.20725504,E,1,05,2.87,160.00,M,-21.3213,M,,*69
$GPGGA,090042.60,2823.13025667,S,13715.20819721,E,1,05,2.87,160.00,M,-21.3213,M,,*64
$GPGGA,090042.70,2823.12954263,S,13715.20905049,E,1,05,2.87,160.00,M,-21.3213,M,,*6E
$GPGGA,090042.80,2823.12875425,S,13715.20999286,E,1,05,2.87,160.00,M,-21.3213,M,,*63
$GPGGA,090042.90,2823.12796604,S,13715.21093538,E,1,05,2.87,160.00,M,-21.3213,M,,*61
$GPGGA,090043.00,2823.12717804,S,13715.21187807,E,1,05,2.87,160.00,M,-21.3213,M,,*6B
$GPGGA,090043.10,2823.12639030,S,13715.21282099,E,1,05,2.87,160.00,M,-21.3213,M,,*61
$GPGGA,090043.20,2823.12560288,S,13715.21376417,E,1,05,2.87,160.00,M,-21.3213,M,,*64
$GPGGA,090043.30,2823.12489016,S,13715.21461857,E,1,05,2.87,160.00,M,-21.3213,M,,*6F
$GPGGA,090043.40,2823.12410358,S,13715.21556246,E,1,05,2.87,160.00,M,-21.3213,M,,*6E
$GPGGA,090043.50,2823.12331759,S,13715.21650686,E,1,05,2.87,160.00,M,-21.3213,M,,*63
$GPGGA,090043.60,2823.12253233,S,13715.21745189,E,1,05,2.87,160.00,M,-21.3213,M,,*61
$GPGGA,090043.70,2823.12174799,S,13715.21839769,E,1,05,2.87,160.00,M,-21.3213,M,,*6F
$GPGGA,090043.80,2823.12103869,S,13715.21925496,E,1,05,2.87,160.00,M,-21.3213,M,,*6F
$GPGGA,090043.90,2823.12025671,S,13715.22020278,E,1,05,2.87,160.00,M,-21.3213,M,,*65
$GPGGA,090044.00,2823.11947641,S,13715.22115204,E,1,05,2.87,160.00,M,-21.3213,M,,*6A
$GPGGA,090044.10,2823.11869817,S,13715.22210309,E,1,05,2.87,160.00,M,-21.3213,M,,*61
$GPGGA,090044.20,2823.11792249,S,13715.22305637,E,1,05,2.87,160.00,M,-21.3213,M,,*65
$GPGGA,090044.30,2823.11714996,S,13715.22401239,E,1,05,2.87,160.00,M,-21.3213,M,,*6A
$GPGGA,090044.40,2823.11645379,S,13715.22488097,E,1,05,2.87,160.00,M,-21.3213,M,,*64
$GPGGA,090044.50,2823.11568945,S,13715.22584421,E,1,05,2.87,160.00,M,-21.3213,M,,*68
$GPGGA,090044.60,2823.11493087,S,13715.22681264,E,1,05,2.87,160.00,M,-21.3213,M,,*68
$GPGGA,090044.70,2823.11417938,S,13715.22778753,E,1,05,2.87,160.00,M,-21.3213,M,,*6E
$GPGGA,090044.80,2823.11343658,S,13715.22877049,E,1,05,2.87,160.00,M,-21.3213,M,,*62
$GPGGA,090044.90,2823.11270342,S,13715.22976257,E,1,05,2.87,160.00,M,-21.3213,M,,*61
$GPGGA,090045.00,2823.11197838,S,13715.23076249,E,1,05,2.87,160.00,M,-21.3213,M,,*62
$GPGGA,090045.10,2823.11132757,S,13715.23167341,E,1,05,2.87,160.00,M,-21.3213,M,,*62
$GPGGA,090045.20,2823.11061383,S,13715.23268452,E,1,05,2.87,160.00,M,-21.3213,M,,*62
$GPGGA,090045.30,2823.10990441,S,13715.23369996,E,1,05,2.87,160.00,M,-21.3213,M,,*69
$GPGGA,090045.40,2823.10919847,S,13715.23471892,E,1,05,2.87,160.00,M,-21.3213,M,,*6E
$GPGGA,090045.50,2823.10849533,S,13715.23574075,E,1,05,2.87,160.00,M,-21.3213,M,,*60
$GPGGA,090045.60,2823.10779444,S,13715.23676490,E,1,05,2.87,160.00,M,-21.3213,M,,*60
$GPGGA,090045.70,2823.10709539,S,13715.23779093,E,1,05,2.87,160.00,M,-21.3213,M,,*64
$GPGGA,090045.80,2823.10646367,S,13715.23872132,E,1,05,2.87,160.00,M,-21.3213,M,,*62
$GPGGA,090045.90,2823.10576718,S,13715.23975001,E,1,05,2.87,160.00,M,-21.3213,M,,*68
$GPGGA,090046.00,2823.10507167,S,13715.24077972,E,1,05,2.87,160.00,M,-21.3213,M,,*6B
$GPGGA,090046.10,2823.10437695,S,13715.24181025,E,1,05,2.87,160.00,M,-21.3213,M,,*61
$GPGGA,090046.20,2823.10368288,S,13715.24284145,E,1,05,2.87,160.00,M,-21.3213,M,,*66
$GPGGA,090046.30,2823.10298934,S,13715.24387318,E,1,05,2.87,160.00,M,-21.3213,M,,*6D
$GPGGA,090046.40,2823.10236169,S,13715.24480782,E,1,05,2.87,160.00,M,-21.3213,M,,*69
$GPGGA,090046.50,2823.10166889,S,13715.24584031,E,1,05,2.87,160.00,M,-21.3213,M,,*63
$GPGGA,090046.60,2823.10097638,S,13715.24687309,E,1,05,2.87,160.00,M,-21.3213,M,,*63
$GPGGA,090046.70,2823.10028411,S,13715.24790609,E,1,05,2.87,160.00,M,-21.3213,M,,*6D
$GPGGA,090046.80,2823.09959204,S,13715.24893928,E,1,05,2.87,160.00,M,-21.3213,M,,*67
$GPGGA,090046.90,2823.09890014,S,13715.24997261,E,1,05,2.87,160.00,M,-21.3213,M,,*62
$GPGGA,090047.00,2823.09827374,S,13715.25090842,E,1,05,2.87,160.00,M,-21.3213,M,,*67
$GPGGA,090047.10,2823.09758212,S,13715.25194194,E,1,05,2.87,160.00,M,-21.3213,M,,*67
$GPGGA,090047.20,2823.09689062,S,13715.25297553,E,1,05,2.87,160.00,M,-21.3213,M,,*63
$GPGGA,090047.30,2823.09619924,S,13715.25400915,E,1,05,2.87,160.00,M,-21.3213,M,,*66
$GPGGA,090047.40,2823.09550798,S,13715.25504281,E,1,05,2.87,160.00,M,-21.3213,M,,*65
$GPGGA,090047.50,2823.09488215,S,13715.25597880,E,1,05,2.87,160.00,M,-21.3213,M,,*61
$GPGGA,090047.60,2823.09419116,S,13715.25701245,E,1,05,2.87,160.00,M,-21.3213,M,,*64
$GPGGA,090047.70,2823.09350032,S,13715.25804608,E,1,05,2.87,160.00,M,-21.3213,M,,*6F
$GPGGA,090047.80,2823.09280966,S,13715.25907965,E,1,05,2.87,160.00,M,-21.3213,M,,*62
$GPGGA,090047.90,2823.09211923,S,13715.26011317,E,1,05,2.87,160.00,M,-21.3213,M,,*68
$GPGGA,090048.00,2823.09142906,S,13715.26114660,E,1,05,2.87,160.00,M,-21.3213,M,,*6D
$GPGGA,090048.10,2823.09073920,S,13715.26217991,E,1,05,2.87,160.00,M,-21.3213,M,,*6A
$GPGGA,090048.20,2823.09011490,S,13715.26311540,E,1,05,2.87,160.00,M,-21.3213,M,,*6C
$GPGGA,090048.30,2823.08942587,S,13715.26414838,E,1,05,2.87,160.00,M,-21.3213,M,,*64
$GPGGA,090048.40,2823.08873742,S,13715.26518113,E,1,05,2.87,160.00,M,-21.3213,M,,*66
$GPGGA,090048.50,2823.08804967,S,13715.26621359,E,1,05,2.87,160.00,M,-21.3213,M,,*6B
$GPGGA,090048.60,2823.08736280,S,13715.26724569,E,1,05,2.87,160.00,M,-21.3213,M,,*65
$GPGGA,090048.70,2823.08667700,S,13715.26827735,E,1,05,2.87,160.00,M,-21.3213,M,,*6B
$GPGGA,090048.80,2823.08599252,S,13715.26930845,E,1,05,2.87,160.00,M,-21.3213,M,,*6B
$GPGGA,090048.90,2823.08537435,S,13715.27024122,E,1,05,2.87,160.00,M,-21.3213,M,,*6C
$GPGGA,090049.00,2823.08469337,S,13715.27127081,E,1,05,2.87,160.00,M,-21.3213,M,,*61
$GPGGA,090049.10,2823.08401485,S,13715.27229936,E,1,05,2.87,160.00,M,-21.3213,M,,*68
$GPGGA,090049.20,2823.08333934,S,13715.27332663,E,1,05,2.87,160.00,M,-21.3213,M,,*6E
$GPGGA,090049.30,2823.08266756,S,13715.27435231,E,1,05,2.87,160.00,M,-21.3213,M,,*67
$GPGGA,090049.40,2823.08200036,S,13715.27537603,E,1,05,2.87,160.00,M,-21.3213,M,,*67
$GPGGA,090049.50,2823.08133879,S,13715.27639732,E,1,05,2.87,160.00,M,-21.3213,M,,*68
$GPGGA,090049.60,2823.08068415,S,13715.27741559,E,1,05,2.87,160.00,M,-21.3213,M,,*63
$GPGGA,090049.70,2823.07997622,S,13715.27852771,E,1,05,2.87,160.00,M,-21.3213,M,,*67
$GPGGA,090049.80,2823.07934130,S,13715.27953757,E,1,05,2.87,160.00,M,-21.3213,M,,*61
$GPGGA,090049.90,2823.07871769,S,13715.28054421,E,1,05,2.87,160.00,M,-21.3213,M,,*69
$GPGGA,090050.00,2823.07809704,S,13715.28156493,E,1,05,2.87,160.00,M,-21.3213,M,,*66
$GPGGA,090050.10,2823.07747025,S,13715.28262093,E,1,05,2.87,160.00,M,-21.3213,M,,*66
$GPGGA,090050.20,2823.07695009,S,13715.28352280,E,1,05,2.87,160.00,M,-21.3213,M,,*67
$GPGGA,090050.30,2823.07642487,S,13715.28446501,E,1,05,2.87,160.00,M,-21.3213,M,,*62
$GPGGA,090050.40,2823.07595212,S,13715.28534981,E,1,05,2.87,160.00,M,-21.3213,M,,*66
$GPGGA,090050.50,2823.07553165,S,13715.28617713,E,1,05,2.87,160.00,M,-21.3213,M,,*69
$GPGGA,090050.60,2823.07516256,S,13715.28694715,E,1,05,2.87,160.00,M,-21.3213,M,,*65
$GPGGA,090050.70,2823.07484316,S,13715.28766040,E,1,05,2.87,160.00,M,-21.3213,M,,*60
$GPGGA,090050.80,2823.07453288,S,13715.28841481,E,1,05,2.87,160.00,M,-21.3213,M,,*60
$GPGGA,090050.90,2823.07430848,S,13715.28901765,E,1,05,2.87,160.00,M,-21.3213,M,,*6E
$GPGGA,090051.00,2823.07409446,S,13715.28966460,E,1,05,2.87,160.00,M,-21.3213,M,,*69
$GPGGA,090051.10,2823.07392517,S,13715.29026091,E,1,05,2.87,160.00,M,-21.3213,M,,*6E
$GPGGA,090051.20,2823.07381717,S,13715.29071252,E,1,05,2.87,160.00,M,-21.3213,M,,*62
$GPGGA,090051.30,2823.07371973,S,13715.29121539,E,1,05,2.87,160.00,M,-21.3213,M,,*6E
$GPGGA,090051.40,2823.07366576,S,13715.29157910,E,1,05,2.87,160.00,M,-21.3213,M,,*60
$GPGGA,090051.50,2823.07362234,S,13715.29199877,E,1,05,2.87,160.00,M,-21.3213,M,,*66
$GPGGA,090051.60,2823.07360535,S,13715.29228362,E,1,05,2.87,160.00,M,-21.3213,M,,*67
$GPGGA,090051.70,2823.07360072,S,13715.29243269,E,1,05,2.87,160.00,M,-21.3213,M,,*67
$GPGGA,090051.80,2823.07360042,S,13715.29271370,E,1,05,2.87,160.00,M,-21.3213,M,,*63
$GPGGA,090051.90,2823.07359974,S,13715.29267275,E,1,05,2.87,160.00,M,-21.3213,M,,*67
$GPGGA,090052.00,2823.07360934,S,13715.29295733,E,1,05,2.87,160.00,M,-21.3213,M,,*69
$GPGGA,090052.10,2823.07361966,S,13715.29311578,E,1,05,2.87,160.00,M,-21.3213,M,,*6E
$GPGGA,090052.20,2823.07364794,S,13715.29341170,E,1,05,2.87,160.00,M,-21.3213,M,,*62
$GPGGA,090052.30,2823.07369315,S,13715.29374502,E,1,05,2.87,160.00,M,-21.3213,M,,*64
$GPGGA,090052.40,2823.07375930,S,13715.29411723,E,1,05,2.87,160.00,M,-21.3213,M,,*66
$GPGGA,090052.50,2823.07387431,S,13715.29462578,E,1,05,2.87,160.00,M,-21.3213,M,,*6E
$GPGGA,090052.60,2823.07399963,S,13715.29508202,E,1,05,2.87,160.00,M,-21.3213,M,,*6F
$GPGGA,090052.70,2823.07419206,S,13715.29567918,E,1,05,2.87,160.00,M,-21.3213,M,,*60
$GPGGA,090052.80,2823.07439486,S,13715.29622910,E,1,05,2.87,160.00,M,-21.3213,M,,*69
$GPGGA,090052.90,2823.07464095,S,13715.29682917,E,1,05,2.87,160.00,M,-21.3213,M,,*6B
$GPGGA,090053.00,2823.07497900,S,13715.29757601,E,1,05,2.87,160.00,M,-21.3213,M,,*6B
$GPGGA,090053.10,2823.07532618,S,13715.29828100,E,1,05,2.87,160.00,M,-21.3213,M,,*63
$GPGGA,090053.20,2823.07572608,S,13715.29904002,E,1,05,2.87,160.00,M,-21.3213,M,,*69
$GPGGA,090053.30,2823.07618041,S,13715.29985357,E,1,05,2.87,160.00,M,-21.3213,M,,*66
$GPGGA,090053.40,2823.07663342,S,13715.30062726,E,1,05,2.87,160.00,M,-21.3213,M,,*67
$GPGGA,090053.50,2823.07719629,S,13715.30155027,E,1,05,2.87,160.00,M,-21.3213,M,,*61
$GPGGA,090053.60,2823.07775379,S,13715.30243321,E,1,05,2.87,160.00,M,-21.3213,M,,*69
$GPGGA,090053.70,2823.07836229,S,13715.30337028,E,1,05,2.87,160.00,M,-21.3213,M,,*6C
$GPGGA,090053.80,2823.07902331,S,13715.30436425,E,1,05,2.87,160.00,M,-21.3213,M,,*62
$GPGGA,090053.90,2823.07968429,S,13715.30533905,E,1,05,2.87,160.00,M,-21.3213,M,,*6A
$GPGGA,090054.00,2823.08042190,S,13715.30640953,E,1,05,2.87,160.00,M,-21.3213,M,,*69
$GPGGA,090054.10,2823.08110535,S,13715.30738872,E,1,05,2.87,160.00,M,-21.3213,M,,*69
$GPGGA,090054.20,2823.08179784,S,13715.30837106,E,1,05,2.87,160.00,M,-21.3213,M,,*67
$GPGGA,090054.30,2823.08249768,S,13715.30935580,E,1,05,2.87,160.00,M,-21.3213,M,,*6D
$GPGGA,090054.40,2823.08320346,S,13715.31034231,E,1,05,2.87,160.00,M,-21.3213,M,,*68
$GPGGA,090054.50,2823.08391406,S,13715.31133006,E,1,05,2.87,160.00,M,-21.3213,M,,*60
$GPGGA,090054.60,2823.08462853,S,13715.31231854,E,1,05,2.87,160.00,M,-21.3213,M,,*6A
$GPGGA,090054.70,2823.08534608,S,13715.31330730,E,1,05,2.87,160.00,M,-21.3213,M,,*64
$GPGGA,090054.80,2823.08606608,S,13715.31429592,E,1,05,2.87,160.00,M,-21.3213,M,,*6C
$GPGGA,090054.90,2823.08678799,S,13715.31528395,E,1,05,2.87,160.00,M,-21.3213,M,,*6C
$GPGGA,090055.00,2823.08751136,S,13715.31627092,E,1,05,2.87,160.00,M,-21.3213,M,,*65
$GPGGA,090055.10,2823.08823579,S,13715.31725631,E,1,05,2.87,160.00,M,-21.3213,M,,*6D
$GPGGA,090055.20,2823.08896094,S,13715.31823955,E,1,05,2.87,160.00,M,-21.3213,M,,*62
$GPGGA,090055.30,2823.08968650,S,13715.31921995,E,1,05,2.87,160.00,M,-21.3213,M,,*62
$GPGGA,090055.40,2823.09041218,S,13715.32019671,E,1,05,2.87,160.00,M,-21.3213,M,,*6A
$GPGGA,090055.50,2823.09113768,S,13715.32116888,E,1,05,2.87,160.00,M,-21.3213,M,,*69
$GPGGA,090055.60,2823.09186270,S,13715.32213530,E,1,05,2.87,160.00,M,-21.3213,M,,*62
$GPGGA,090055.70,2823.09258690,S,13715.32309455,E,1,05,2.87,160.00,M,-21.3213,M,,*61
$GPGGA,090055.80,2823.09330990,S,13715.32404496,E,1,05,2.87,160.00,M,-21.3213,M,,*6B
$GPGGA,090055.90,2823.09410089,S,13715.32507459,E,1,05,2.87,160.00,M,-21.3213,M,,*6F
$GPGGA,090056.00,2823.09482019,S,13715.32599967,E,1,05,2.87,160.00,M,-21.3213,M,,*60
$GPGGA,090056.10,2823.09553959,S,13715.32691180,E,1,05,2.87,160.00,M,-21.3213,M,,*6B
$GPGGA,090056.20,2823.09627329,S,13715.32782564,E,1,05,2.87,160.00,M,-21.3213,M,,*68
$GPGGA,090056.30,2823.09703609,S,13715.32875425,E,1,05,2.87,160.00,M,-21.3213,M,,*6A
$GPGGA,090056.40,2823.09768994,S,13715.32952911,E,1,05,2.87,160.00,M,-21.3213,M,,*65
$GPGGA,090056.50,2823.09837561,S,13715.33031646,E,1,05,2.87,160.00,M,-21.3213,M,,*67
$GPGGA,090056.60,2823.09902244,S,13715.33103108,E,1,05,2.87,160.00,M,-21.3213,M,,*6E
$GPGGA,090056.70,2823.09963020,S,13715.33167319,E,1,05,2.87,160.00,M,-21.3213,M,,*68
$GPGGA,090056.80,2823.10019881,S,13715.33224394,E,1,05,2.87,160.00,M,-21.3213,M,,*69
$GPGGA,090056.90,2823.10072833,S,13715.33274555,E,1,05,2.87,160.00,M,-21.3213,M,,*62
$GPGGA,090057.00,2823.10129247,S,13715.33324373,E,1,05,2.87,160.00,M,-21.3213,M,,*6A
$GPGGA,090057.10,2823.10181961,S,13715.33367106,E,1,05,2.87,160.00,M,-21.3213,M,,*61
$GPGGA,090057.20,2823.10231077,S,13715.33403194,E,1,05,2.87,160.00,M,-21.3213,M,,*6A
$GPGGA,090057.30,2823.10269175,S,13715.33428451,E,1,05,2.87,160.00,M,-21.3213,M,,*60
$GPGGA,090057.40,2823.10311462,S,13715.33453431,E,1,05,2.87,160.00,M,-21.3213,M,,*60
$GPGGA,090057.50,2823.10350644,S,13715.33473480,E,1,05,2.87,160.00,M,-21.3213,M,,*6A
$GPGGA,090057.60,2823.10386915,S,13715.33489186,E,1,05,2.87,160.00,M,-21.3213,M,,*6F
$GPGGA,090057.70,2823.10412568,S,13715.33498531,E,1,05,2.87,160.00,M,-21.3213,M,,*6A
$GPGGA,090057.80,2823.10435499,S,13715.33505593,E,1,05,2.87,160.00,M,-21.3213,M,,*62
$GPGGA,090057.90,2823.10455607,S,13715.33510740,E,1,05,2.87,160.00,M,-21.3213,M,,*68
$GPGGA,090058.00,2823.10471242,S,13715.33514048,E,1,05,2.87,160.00,M,-21.3213,M,,*66
$GPGGA,090058.10,2823.10474395,S,13715.33514643,E,1,05,2.87,160.00,M,-21.3213,M,,*64
$GPGGA,090058.20,2823.10490664,S,13715.33517292,E,1,05,2.87,160.00,M,-21.3213,M,,*6D
$GPGGA,090058.30,2823.10512459,S,13715.33519820,E,1,05,2.87,160.00,M,-21.3213,M,,*66
$GPGGA,090058.40,2823.10537744,S,13715.33521397,E,1,05,2.87,160.00,M,-21.3213,M,,*65
$GPGGA,090058.50,2823.10566239,S,13715.33521565,E,1,05,2.87,160.00,M,-21.3213,M,,*64
$GPGGA,090058.60,2823.10598175,S,13715.33519908,E,1,05,2.87,160.00,M,-21.3213,M,,*61
$GPGGA,090058.70,2823.10642204,S,13715.33514761,E,1,05,2.87,160.00,M,-21.3213,M,,*6D
$GPGGA,090058.80,2823.10682007,S,13715.33507565,E,1,05,2.87,160.00,M,-21.3213,M,,*6B
$GPGGA,090058.90,2823.10734725,S,13715.33494800,E,1,05,2.87,160.00,M,-21.3213,M,,*64
$GPGGA,090059.00,2823.10783742,S,13715.33480038,E,1,05,2.87,160.00,M,-21.3213,M,,*67
$GPGGA,090059.10,2823.10846430,S,13715.33457682,E,1,05,2.87,160.00,M,-21.3213,M,,*6B
$GPGGA,090059.20,2823.10905804,S,13715.33433422,E,1,05,2.87,160.00,M,-21.3213,M,,*6F
$GPGGA,090059.30,2823.10970625,S,13715.33404033,E,1,05,2.87,160.00,M,-21.3213,M,,*61
$GPGGA,090059.40,2823.11041020,S,13715.33369215,E,1,05,2.87,160.00,M,-21.3213,M,,*65
$GPGGA,090059.50,2823.11117064,S,13715.33328760,E,1,05,2.87,160.00,M,-21.3213,M,,*64
$GPGGA,090059.60,2823.11189890,S,13715.33287707,E,1,05,2.87,160.00,M,-21.3213,M,,*66
$GPGGA,090059.70,2823.11277250,S,13715.33236001,E,1,05,2.87,160.00,M,-21.3213,M,,*68
$GPGGA,090059.80,2823.11361291,S,13715.33184175,E,1,05,2.87,160.00,M,-21.3213,M,,*64
$GPGGA,090059.90,2823.11450864,S,13715.33127105,E,1,05,2.87,160.00,M,-21.3213,M,,*6E
$GPGGA,090100.00,2823.11546037,S,13715.33064785,E,1,05,2.87,160.00,M,-21.3213,M,,*6A
$GPGGA,090100.10,2823.11639167,S,13715.33002449,E,1,05,2.87,160.00,M,-21.3213,M,,*67
$GPGGA,090100.20,2823.11741380,S,13715.32932799,E,1,05,2.87,160.00,M,-21.3213,M,,*64
$GPGGA,090100.30,2823.11835090,S,13715.32868030,E,1,05,2.87,160.00,M,-21.3213,M,,*61
$GPGGA,090100.40,2823.11929309,S,13715.32802203,E,1,05,2.87,160.00,M,-21.3213,M,,*67
$GPGGA,090100.50,2823.12023938,S,13715.32735512,E,1,05,2.87,160.00,M,-21.3213,M,,*62
$GPGGA,090100.60,2823.12118897,S,13715.32668119,E,1,05,2.87,160.00,M,-21.3213,M,,*6A
$GPGGA,090100.70,2823.12214125,S,13715.32600152,E,1,05,2.87,160.00,M,-21.3213,M,,*65
$GPGGA,090100.80,2823.12309568,S,13715.32531721,E,1,05,2.87,160.00,M,-21.3213,M,,*69
$GPGGA,090100.90,2823.12405186,S,13715.32462912,E,1,05,2.87,160.00,M,-21.3213,M,,*6E
$GPGGA,090101.00,2823.12500946,S,13715.32393796,E,1,05,2.87,160.00,M,-21.3213,M,,*6D
$GPGGA,090101.10,2823.12596819,S,13715.32324431,E,1,05,2.87,160.00,M,-21.3213,M,,*6A
$GPGGA,090101.20,2823.12692785,S,13715.32254864,E,1,05,2.87,160.00,M,-21.3213,M,,*6E
$GPGGA,090101.30,2823.12788825,S,13715.32185134,E,1,05,2.87,160.00,M,-21.3213,M,,*63
$GPGGA,090101.40,2823.12884925,S,13715.32115271,E,1,05,2.87,160.00,M,-21.3213,M,,*6D
$GPGGA,090101.50,2823.12981074,S,13715.32045300,E,1,05,2.87,160.00,M,-21.3213,M,,*66
$GPGGA,090101.60,2823.13068165,S,13715.31981869,E,1,05,2.87,160.00,M,-21.3213,M,,*6D
$GPGGA,090101.70,2823.13164382,S,13715.31911744,E,1,05,2.87,160.00,M,-21.3213,M,,*63
$GPGGA,090101.80,2823.13260623,S,13715.31841560,E,1,05,2.87,160.00,M,-21.3213,M,,*65
$GPGGA,090101.90,2823.13356882,S,13715.31771327,E,1,05,2.87,160.00,M,-21.3213,M,,*6C
$GPGGA,090102.00,2823.13453156,S,13715.31701055,E,1,05,2.87,160.00,M,-21.3213,M,,*65
$GPGGA,090102.10,2823.13549439,S,13715.31630749,E,1,05,2.87,160.00,M,-21.3213,M,,*6B
$GPGGA,090102.20,2823.13636632,S,13715.31567061,E,1,05,2.87,160.00,M,-21.3213,M,,*66
$GPGGA,090102.30,2823.13732925,S,13715.31496705,E,1,05,2.87,160.00,M,-21.3213,M,,*61
$GPGGA,090102.40,2823.13829217,S,13715.31426328,E,1,05,2.87,160.00,M,-21.3213,M,,*69
$GPGGA,090102.50,2823.13925505,S,13715.31355932,E,1,05,2.87,160.00,M,-21.3213,M,,*63
$GPGGA,090102.60,2823.14021787,S,13715.31285518,E,1,05,2.87,160.00,M,-21.3213,M,,*6A
$GPGGA,090102.70,2823.14118057,S,13715.31215085,E,1,05,2.87,160.00,M,-21.3213,M,,*62
$GPGGA,090102.80,2823.14205221,S,13715.31151291,E,1,05,2.87,160.00,M,-21.3213,M,,*65
$GPGGA,090102.90,2823.14301458,S,13715.31080823,E,1,05,2.87,160.00,M,-21.3213,M,,*67
$GPGGA,090103.00,2823.14397670,S,13715.31010333,E,1,05,2.87,160.00,M,-21.3213,M,,*6B
$GPGGA,090103.10,2823.14493849,S,13715.30939819,E,1,05,2.87,160.00,M,-21.3213,M,,*6D
$GPGGA,090103.20,2823.14589988,S,13715.30869277,E,1,05,2.87,160.00,M,-21.3213,M,,*6E
$GPGGA,090103.30,2823.14676998,S,13715.30805371,E,1,05,2.87,160.00,M,-21.3213,M,,*60
$GPGGA,090103.40,2823.14773027,S,13715.30734757,E,1,05,2.87,160.00,M,-21.3213,M,,*63
$GPGGA,090103.50,2823.14868979,S,13715.30664095,E,1,05,2.87,160.00,M,-21.3213,M,,*68
$GPGGA,090103.60,2823.14964835,S,13715.30593372,E,1,05,2.87,160.00,M,-21.3213,M,,*6E
$GPGGA,090103.70,2823.15060572,S,13715.30522575,E,1,05,2.87,160.00,M,-21.3213,M,,*66
$GPGGA,090103.80,2823.15156163,S,13715.30451687,E,1,05,2.87,160.00,M,-21.3213,M,,*62
$GPGGA,090103.90,2823.15251478,S,13715.30380757,E,1,05,2.87,160.00,M,-21.3213,M,,*6F
$GPGGA,090104.00,2823.15337659,S,13715.30316363,E,1,05,2.87,160.00,M,-21.3213,M,,*6D
$GPGGA,090104.10,2823.15432591,S,13715.30245076,E,1,05,2.87,160.00,M,-21.3213,M,,*69
$GPGGA,090104.20,2823.15527189,S,13715.30173582,E,1,05,2.87,160.00,M,-21.3213,M,,*6A
$GPGGA,090104.30,2823.15621376,S,13715.30101834,E,1,05,2.87,160.00,M,-21.3213,M,,*69
$GPGGA,090104.40,2823.15715071,S,13715.30029760,E,1,05,2.87,160.00,M,-21.3213,M,,*69
$GPGGA,090104.50,2823.15808985,S,13715.29956639,E,1,05,2.87,160.00,M,-21.3213,M,,*6D
$GPGGA,090104.60,2823.15896252,S,13715.29887706,E,1,05,2.87,160.00,M,-21.3213,M,,*68
$GPGGA,090104.70,2823.15978208,S,13715.29821889,E,1,05,2.87,160.00,M,-21.3213,M,,*63
$GPGGA,090104.80,2823.16063558,S,13715.29751961,E,1,05,2.87,160.00,M,-21.3213,M,,*61
$GPGGA,090104.90,2823.16134984,S,13715.29692097,E,1,05,2.87,160.00,M,-21.3213,M,,*60
$GPGGA,090105.00,2823.16201204,S,13715.29635253,E,1,05,2.87,160.00,M,-21.3213,M,,*69
$GPGGA,090105.10,2823.16270574,S,13715.29574010,E,1,05,2.87,160.00,M,-21.3213,M,,*6D
$GPGGA,090105.20,2823.16326430,S,13715.29523170,E,1,05,2.87,160.00,M,-21.3213,M,,*68
$GPGGA,090105.30,2823.16385339,S,13715.29467755,E,1,05,2.87,160.00,M,-21.3213,M,,*6E
$GPGGA,090105.40,2823.16431184,S,13715.29423098,E,1,05,2.87,160.00,M,-21.3213,M,,*63
$GPGGA,090105.50,2823.16480052,S,13715.29373730,E,1,05,2.87,160.00,M,-21.3213,M,,*65
$GPGGA,090105.60,2823.16516432,S,13715.29335579,E,1,05,2.87,160.00,M,-21.3213,M,,*67
$GPGGA,090105.70,2823.16555864,S,13715.29292632,E,1,05,2.87,160.00,M,-21.3213,M,,*6E
$GPGGA,090105.80,2823.16583453,S,13715.29261439,E,1,05,2.87,160.00,M,-21.3213,M,,*67
$GPGGA,090105.90,2823.16614167,S,13715.29225426,E,1,05,2.87,160.00,M,-21.3213,M,,*67
$GPGGA,090106.00,2823.16633374,S,13715.29202125,E,1,05,2.87,160.00,M,-21.3213,M,,*6B
$GPGGA,090106.10,2823.16654211,S,13715.29176080,E,1,05,2.87,160.00,M,-21.3213,M,,*67
$GPGGA,090106.20,2823.16681257,S,13715.29140951,E,1,05,2.87,160.00,M,-21.3213,M,,*6E
$GPGGA,090106.30,2823.16699319,S,13715.29116642,E,1,05,2.87,160.00,M,-21.3213,M,,*63
$GPGGA,090106.40,2823.16727146,S,13715.29077875,E,1,05,2.87,160.00,M,-21.3213,M,,*64
$GPGGA,090106.50,2823.16751122,S,13715.29043203,E,1,05,2.87,160.00,M,-21.3213,M,,*6A
$GPGGA,090106.60,2823.16783978,S,13715.28993816,E,1,05,2.87,160.00,M,-21.3213,M,,*6A
$GPGGA,090106.70,2823.16812997,S,13715.28948442,E,1,05,2.87,160.00,M,-21.3213,M,,*66
$GPGGA,090106.80,2823.16850344,S,13715.28887692,E,1,05,2.87,160.00,M,-21.3213,M,,*66
$GPGGA,090106.90,2823.16883924,S,13715.28830910,E,1,05,2.87,160.00,M,-21.3213,M,,*6C
$GPGGA,090107.00,2823.16925359,S,13715.28758164,E,1,05,2.87,160.00,M,-21.3213,M,,*63
$GPGGA,090107.10,2823.16963150,S,13715.28689403,E,1,05,2.87,160.00,M,-21.3213,M,,*62
$GPGGA,090107.20,2823.17008427,S,13715.28604215,E,1,05,2.87,160.00,M,-21.3213,M,,*65
$GPGGA,090107.30,2823.17050226,S,13715.28523100,E,1,05,2.87,160.00,M,-21.3213,M,,*6F
$GPGGA,090107.40,2823.17099255,S,13715.28425243,E,1,05,2.87,160.00,M,-21.3213,M,,*6A
$GPGGA,090107.50,2823.17144996,S,13715.28331610,E,1,05,2.87,160.00,M,-21.3213,M,,*6E
$GPGGA,090107.60,2823.17192753,S,13715.28231752,E,1,05,2.87,160.00,M,-21.3213,M,,*67
$GPGGA,090107.70,2823.17242605,S,13715.28125540,E,1,05,2.87,160.00,M,-21.3213,M,,*6D
$GPGGA,090107.80,2823.17295342,S,13715.28011321,E,1,05,2.87,160.00,M,-21.3213,M,,*69
$GPGGA,090107.90,2823.17347198,S,13715.27897444,E,1,05,2.87,160.00,M,-21.3213,M,,*6E
$GPGGA,090108.00,2823.17398708,S,13715.27783052,E,1,05,2.87,160.00,M,-21.3213,M,,*6C
$GPGGA,090108.10,2823.17449943,S,13715.27668230,E,1,05,2.87,160.00,M,-21.3213,M,,*65
$GPGGA,090108.20,2823.17501007,S,13715.27552942,E,1,05,2.87,160.00,M,-21.3213,M,,*66
$GPGGA,090108.30,2823.17551839,S,13715.27437484,E,1,05,2.87,160.00,M,-21.3213,M,,*62
$GPGGA,090108.40,2823.17602526,S,13715.27321795,E,1,05,2.87,160.00,M,-21.3213,M,,*60
$GPGGA,090108.50,2823.17648316,S,13715.27216888,E,1,05,2.87,160.00,M,-21.3213,M,,*6C
$GPGGA,090108.60,2823.17698799,S,13715.27100870,E,1,05,2.87,160.00,M,-21.3213,M,,*62
$GPGGA,090108.70,2823.17749203,S,13715.26984726,E,1,05,2.87,160.00,M,-21.3213,M,,*61
$GPGGA,090108.80,2823.17799544,S,13715.26868481,E,1,05,2.87,160.00,M,-21.3213,M,,*6A
$GPGGA,090108.90,2823.17849833,S,13715.26752154,E,1,05,2.87,160.00,M,-21.3213,M,,*6F
$GPGGA,090109.00,2823.17900080,S,13715.26635761,E,1,05,2.87,160.00,M,-21.3213,M,,*6B
$GPGGA,090109.10,2823.17950294,S,13715.26519314,E,1,05,2.87,160.00,M,-21.3213,M,,*63
$GPGGA,090109.20,2823.17995740,S,13715.26413831,E,1,05,2.87,160.00,M,-21.3213,M,,*62
$GPGGA,090109.30,2823.18045907,S,13715.26297308,E,1,05,2.87,160.00,M,-21.3213,M,,*6E
$GPGGA,090109.40,2823.18096055,S,13715.26180755,E,1,05,2.87,160.00,M,-21.3213,M,,*60
$GPGGA,090109.50,2823.18146189,S,13715.26064179,E,1,05,2.87,160.00,M,-21.3213,M,,*6E
$GPGGA,090109.60,2823.18196311,S,13715.25947584,E,1,05,2.87,160.00,M,-21.3213,M,,*6E
$GPGGA,090109.70,2823.18241690,S,13715.25841989,E,1,05,2.87,160.00,M,-21.3213,M,,*6C
$GPGGA,090109.80,2823.18291795,S,13715.25725368,E,1,05,2.87,160.00,M,-21.3213,M,,*62
$GPGGA,090109.90,2823.18341894,S,13715.25608735,E,1,05,2.87,160.00,M,-21.3213,M,,*63
$GPGGA,090110.00,2823.18391988,S,13715.25492095,E,1,05,2.87,160.00,M,-21.3213,M,,*6F
$GPGGA,090110.10,2823.18442077,S,13715.25375448,E,1,05,2.87,160.00,M,-21.3213,M,,*64
$GPGGA,090110.20,2823.18492163,S,13715.25258796,E,1,05,2.87,160.00,M,-21.3213,M,,*60
$GPGGA,090110.30,2823.18537516,S,13715.25153157,E,1,05,2.87,160.00,M,-21.3213,M,,*6A
$GPGGA,090110.40,2823.18587598,S,13715.25036497,E,1,05,2.87,160.00,M,-21.3213,M,,*6B
