$GPGGA,090000.00,2823.06024816,S,13715.15879940,E,1,05,2.87,160.00,M,-21.3213,M,,*60
$GPGGA,090000.10,2823.06024816,S,13715.15879940,E,1,05,2.87,160.00,M,-21.3213,M,,*61
$GPGGA,090000.20,2823.06024816,S,13715.15879940,E,1,05,2.87,160.00,M,-21.3213,M,,*62
$GPGGA,090000.30,2823.06024816,S,13715.15879940,E,1,05,2.87,160.00,M,-21.3213,M,,*63
$GPGGA,090000.40,2823.06024816,S,13715.15879940,E,1,05,2.87,160.00,M,-21.3213,M,,*64
$GPGGA,090000.50,2823.06024816,S,13715.15879940,E,1,05,2.87,160.00,M,-21.3213,M,,*65
$GPGGA,090000.60,2823.06024816,S,13715.15879940,E,1,05,2.87,160.00,M,-21.3213,M,,*66
$GPGGA,090000.70,2823.06024816,S,13715.15879940,E,1,05,2.87,160.00,M,-21.3213,M,,*67
$GPGGA,090000.80,2823.06024816,S,13715.15879940,E,1,05,2.87,160.00,M,-21.3213,M,,*68
$GPGGA,090000.90,2823.06024816,S,13715.15879940,E,1,05,2.87,160.00,M,-21.3213,M,,*69
$GPGGA,090001.00,2823.06024816,S,13715.15879940,E,1,05,2.87,160.00,M,-21.3213,M,,*61
$GPGGA,090001.10,2823.06024816,S,13715.15879940,E,1,05,2.87,160.00,M,-21.3213,M,,*60
$GPGGA,090001.20,2823.06024816,S,13715.15879940,E,1,05,2.87,160.00,M,-21.3213,M,,*63
$GPGGA,090001.30,2823.06024816,S,13715.15879940,E,1,05,2.87,160.00,M,-21.3213,M,,*62
$GPGGA,090001.40,2823.06024816,S,13715.15879940,E,1,05,2.87,160.00,M,-21.3213,M,,*65
$GPGGA,090001.50,2823.06024816,S,13715.15879940,E,1,05,2.87,160.00,M,-21.3213,M,,*64
$GPGGA,090001.60,2823.06024816,S,13715.15879940,E,1,05,2.87,160.00,M,-21.3213,M,,*67
$GPGGA,090001.70,2823.06024816,S,13715.15879940,E,1,05,2.87,160.00,M,-21.3213,M,,*66
$GPGGA,090001.80,2823.06024816,S,13715.15879940,E,1,05,2.87,160.00,M,-21.3213,M,,*69
$GPGGA,090001.90,2823.06024816,S,13715.15879940,E,1,05,2.87,160.00,M,-21.3213,M,,*68
$GPGGA,090002.00,2823.06024816,S,13715.15879940,E,1,05,2.87,160.00,M,-21.3213,M,,*62
$GPGGA,090002.10,2823.06024816,S,13715.15879940,E,1,05,2.87,160.00,M,-21.3213,M,,*63
$GPGGA,090002.20,2823.06024816,S,13715.15879940,E,1,05,2.87,160.00,M,-21.3213,M,,*60
$GPGGA,090002.30,2823.06024816,S,13715.15879940,E,1,05,2.87,160.00,M,-21.3213,M,,*61
$GPGGA,090002.40,2823.06024816,S,13715.15879940,E,1,05,2.87,160.00,M,-21.3213,M,,*66
$GPGGA,090002.50,2823.06024816,S,13715.15879940,E,1,05,2.87,160.00,M,-21.3213,M,,*67
$GPGGA,090002.60,2823.06024816,S,13715.15879940,E,1,05,2.87,160.00,M,-21.3213,M,,*64
$GPGGA,090002.70,2823.06024816,S,13715.15879940,E,1,05,2.87,160.00,M,-21.3213,M,,*65
$GPGGA,090002.80,2823.06024816,S,13715.15879940,E,1,05,2.87,160.00,M,-21.3213,M,,*6A
$GPGGA,090002.90,2823.06024816,S,13715.15879940,E,1,05,2.87,160.00,M,-21.3213,M,,*6B
$GPGGA,090003.00,2823.06024816,S,13715.15879940,E,1,05,2.87,160.00,M,-21.3213,M,,*63
$GPGGA,090003.10,2823.06024816,S,13715.15879940,E,1,05,2.87,160.00,M,-21.3213,M,,*62
$GPGGA,090003.20,2823.06024816,S,13715.15879940,E,1,05,2.87,160.00,M,-21.3213,M,,*61
$GPGGA,090003.30,2823.06024816,S,13715.15879940,E,1,05,2.87,160.00,M,-21.3213,M,,*60
$GPGGA,090003.40,2823.06024816,S,13715.15879940,E,1,05,2.87,160.00,M,-21.3213,M,,*67
$GPGGA,090003.50,2823.06024816,S,13715.15879940,E,1,05,2.87,160.00,M,-21.3213,M,,*66
$GPGGA,090003.60,2823.06024816,S,13715.15879940,E,1,05,2.87,160.00,M,-21.3213,M,,*65
$GPGGA,090003.70,2823.06024816,S,13715.15879940,E,1,05,2.87,160.00,M,-21.3213,M,,*64
$GPGGA,090003.80,2823.06024816,S,13715.15879940,E,1,05,2.87,160.00,M,-21.3213,M,,*6B
$GPGGA,090003.90,2823.06024816,S,13715.15879940,E,1,05,2.87,160.00,M,-21.3213,M,,*6A
$GPGGA,090004.00,2823.06024816,S,13715.15879940,E,1,05,2.87,160.00,M,-21.3213,M,,*64
$GPGGA,090004.10,2823.06024816,S,13715.15879940,E,1,05,2.87,160.00,M,-21.3213,M,,*65
$GPGGA,090004.20,2823.06024816,S,13715.15879940,E,1,05,2.87,160.00,M,-21.3213,M,,*66
$GPGGA,090004.30,2823.06024816,S,13715.15879940,E,1,05,2.87,160.00,M,-21.3213,M,,*67
$GPGGA,090004.40,2823.06024816,S,13715.15879940,E,1,05,2.87,160.00,M,-21.3213,M,,*60
$GPGGA,090004.50,2823.06024816,S,13715.15879940,E,1,05,2.87,160.00,M,-21.3213,M,,*61
$GPGGA,090004.60,2823.06024816,S,13715.15879940,E,1,05,2.87,160.00,M,-21.3213,M,,*62
$GPGGA,090004.70,2823.06024816,S,13715.15879940,E,1,05,2.87,160.00,M,-21.3213,M,,*63
$GPGGA,090004.80,2823.06024816,S,13715.15879940,E,1,05,2.87,160.00,M,-21.3213,M,,*6C
$GPGGA,090004.90,2823.06024816,S,13715.15879940,E,1,05,2.87,160.00,M,-21.3213,M,,*6D
$GPGGA,090005.00,2823.06024816,S,13715.15879940,E,1,05,2.87,160.00,M,-21.3213,M,,*65
$GPGGA,090005.10,2823.06024816,S,13715.15879940,E,1,05,2.87,160.00,M,-21.3213,M,,*64
$GPGGA,090005.20,2823.06024816,S,13715.15879940,E,1,05,2.87,160.00,M,-21.3213,M,,*67
$GPGGA,090005.30,2823.06024816,S,13715.15879940,E,1,05,2.87,160.00,M,-21.3213,M,,*66
$GPGGA,090005.40,2823.06024816,S,13715.15879940,E,1,05,2.87,160.00,M,-21.3213,M,,*61
$GPGGA,090005.50,2823.06024816,S,13715.15879940,E,1,05,2.87,160.00,M,-21.3213,M,,*60
$GPGGA,090005.60,2823.06024816,S,13715.15879940,E,1,05,2.87,160.00,M,-21.3213,M,,*63
$GPGGA,090005.70,2823.06024816,S,13715.15879940,E,1,05,2.87,160.00,M,-21.3213,M,,*62
$GPGGA,090005.80,2823.06024816,S,13715.15879940,E,1,05,2.87,160.00,M,-21.3213,M,,*6D
$GPGGA,090005.90,2823.06024816,S,13715.15879940,E,1,05,2.87,160.00,M,-21.3213,M,,*6C
$GPGGA,090006.00,2823.06024816,S,13715.15879940,E,1,05,2.87,160.00,M,-21.3213,M,,*66
$GPGGA,090006.10,2823.06024816,S,13715.15879940,E,1,05,2.87,160.00,M,-21.3213,M,,*67
$GPGGA,090006.20,2823.06024816,S,13715.15879940,E,1,05,2.87,160.00,M,-21.3213,M,,*64
$GPGGA,090006.30,2823.06024816,S,13715.15879940,E,1,05,2.87,160.00,M,-21.3213,M,,*65
$GPGGA,090006.40,2823.06024816,S,13715.15879940,E,1,05,2.87,160.00,M,-21.3213,M,,*62
$GPGGA,090006.50,2823.06024816,S,13715.15879940,E,1,05,2.87,160.00,M,-21.3213,M,,*63
$GPGGA,090006.60,2823.06024816,S,13715.15879940,E,1,05,2.87,160.00,M,-21.3213,M,,*60
$GPGGA,090006.70,2823.06024816,S,13715.15879940,E,1,05,2.87,160.00,M,-21.3213,M,,*61
$GPGGA,090006.80,2823.06024816,S,13715.15879940,E,1,05,2.87,160.00,M,-21.3213,M,,*6E
$GPGGA,090006.90,2823.06024816,S,13715.15879940,E,1,05,2.87,160.00,M,-21.3213,M,,*6F
$GPGGA,090007.00,2823.06024816,S,13715.15879940,E,1,05,2.87,160.00,M,-21.3213,M,,*67
$GPGGA,090007.10,2823.06024816,S,13715.15879940,E,1,05,2.87,160.00,M,-21.3213,M,,*66
$GPGGA,090007.20,2823.06024816,S,13715.15879940,E,1,05,2.87,160.00,M,-21.3213,M,,*65
$GPGGA,090007.30,2823.06024816,S,13715.15879940,E,1,05,2.87,160.00,M,-21.3213,M,,*64
$GPGGA,090007.40,2823.06024816,S,13715.15879940,E,1,05,2.87,160.00,M,-21.3213,M,,*63
$GPGGA,090007.50,2823.06024816,S,13715.15879940,E,1,05,2.87,160.00,M,-21.3213,M,,*62
$GPGGA,090007.60,2823.06024816,S,13715.15879940,E,1,05,2.87,160.00,M,-21.3213,M,,*61
$GPGGA,090007.70,2823.06024816,S,13715.15879940,E,1,05,2.87,160.00,M,-21.3213,M,,*60
$GPGGA,090007.80,2823.06024816,S,13715.15879940,E,1,05,2.87,160.00,M,-21.3213,M,,*6F
$GPGGA,090007.90,2823.06025962,S,13715.15877608,E,1,05,2.87,160.00,M,-21.3213,M,,*60
$GPGGA,090008.00,2823.06030209,S,13715.15868970,E,1,05,2.87,160.00,M,-21.3213,M,,*6A
$GPGGA,090008.10,2823.06034938,S,13715.15859353,E,1,05,2.87,160.00,M,-21.3213,M,,*6F
$GPGGA,090008.20,2823.06043498,S,13715.15841942,E,1,05,2.87,160.00,M,-21.3213,M,,*68
$GPGGA,090008.30,2823.06054412,S,13715.15819746,E,1,05,2.87,160.00,M,-21.3213,M,,*6A
$GPGGA,090008.40,2823.06065961,S,13715.15796257,E,1,05,2.87,160.00,M,-21.3213,M,,*6B
$GPGGA,090008.50,2823.06078480,S,13715.15770794,E,1,05,2.87,160.00,M,-21.3213,M,,*66
$GPGGA,090008.60,2823.06088370,S,13715.15750680,E,1,05,2.87,160.00,M,-21.3213,M,,*64
$GPGGA,090008.70,2823.06098887,S,13715.15729289,E,1,05,2.87,160.00,M,-21.3213,M,,*64
$GPGGA,090008.80,2823.06109995,S,13715.15706697,E,1,05,2.87,160.00,M,-21.3213,M,,*66
$GPGGA,090008.90,2823.06121660,S,13715.15682974,E,1,05,2.87,160.00,M,-21.3213,M,,*67
$GPGGA,090009.00,2823.06133847,S,13715.15658185,E,1,05,2.87,160.00,M,-21.3213,M,,*66
$GPGGA,090009.10,2823.06142555,S,13715.15640475,E,1,05,2.87,160.00,M,-21.3213,M,,*6C
$GPGGA,090009.20,2823.06155625,S,13715.15613893,E,1,05,2.87,160.00,M,-21.3213,M,,*6F
$GPGGA,090009.30,2823.06165028,S,13715.15594769,E,1,05,2.87,160.00,M,-21.3213,M,,*60
$GPGGA,090009.40,2823.06174722,S,13715.15575052,E,1,05,2.87,160.00,M,-21.3213,M,,*6A
$GPGGA,090009.50,2823.06184693,S,13715.15554772,E,1,05,2.87,160.00,M,-21.3213,M,,*69
$GPGGA,090009.60,2823.06199198,S,13715.15525271,E,1,05,2.87,160.00,M,-21.3213,M,,*6A
$GPGGA,090009.70,2823.06209733,S,13715.15503845,E,1,05,2.87,160.00,M,-21.3213,M,,*6F
$GPGGA,090009.80,2823.06220514,S,13715.15481917,E,1,05,2.87,160.00,M,-21.3213,M,,*61
$GPGGA,090009.90,2823.06231509,S,13715.15459555,E,1,05,2.87,160.00,M,-21.3213,M,,*63
$GPGGA,090010.00,2823.06242718,S,13715.15436759,E,1,05,2.87,160.00,M,-21.3213,M,,*63
$GPGGA,090010.10,2823.06254129,S,13715.15413550,E,1,05,2.87,160.00,M,-21.3213,M,,*6D
$GPGGA,090010.20,2823.06265733,S,13715.15389948,E,1,05,2.87,160.00,M,-21.3213,M,,*60
$GPGGA,090010.30,2823.06272958,S,13715.15375255,E,1,05,2.87,160.00,M,-21.3213,M,,*60
$GPGGA,090010.40,2823.06284886,S,13715.15350994,E,1,05,2.87,160.00,M,-21.3213,M,,*6D
$GPGGA,090010.50,2823.06296982,S,13715.15326392,E,1,05,2.87,160.00,M,-21.3213,M,,*67
$GPGGA,090010.60,2823.06309238,S,13715.15301466,E,1,05,2.87,160.00,M,-21.3213,M,,*60
$GPGGA,090010.70,2823.06316960,S,13715.15285761,E,1,05,2.87,160.00,M,-21.3213,M,,*60
$GPGGA,090010.80,2823.06329483,S,13715.15260290,E,1,05,2.87,160.00,M,-21.3213,M,,*63
$GPGGA,090010.90,2823.06342145,S,13715.15234538,E,1,05,2.87,160.00,M,-21.3213,M,,*64
$GPGGA,090011.00,2823.06350177,S,13715.15218201,E,1,05,2.87,160.00,M,-21.3213,M,,*6D
$GPGGA,090011.10,2823.06363071,S,13715.15191976,E,1,05,2.87,160.00,M,-21.3213,M,,*62
$GPGGA,090011.20,2823.06371282,S,13715.15175277,E,1,05,2.87,160.00,M,-21.3213,M,,*6C
$GPGGA,090011.30,2823.06384388,S,13715.15148620,E,1,05,2.87,160.00,M,-21.3213,M,,*64
$GPGGA,090011.40,2823.06392761,S,13715.15131591,E,1,05,2.87,160.00,M,-21.3213,M,,*60
$GPGGA,090011.50,2823.06406062,S,13715.15104539,E,1,05,2.87,160.00,M,-21.3213,M,,*6B
$GPGGA,090011.60,2823.06414583,S,13715.15087209,E,1,05,2.87,160.00,M,-21.3213,M,,*6F
$GPGGA,090011.70,2823.06428061,S,13715.15059797,E,1,05,2.87,160.00,M,-21.3213,M,,*69
$GPGGA,090011.80,2823.06436718,S,13715.15042190,E,1,05,2.87,160.00,M,-21.3213,M,,*6B
$GPGGA,090011.90,2823.06450357,S,13715.15014449,E,1,05,2.87,160.00,M,-21.3213,M,,*67
$GPGGA,090012.00,2823.06459138,S,13715.14996590,E,1,05,2.87,160.00,M,-21.3213,M,,*68
$GPGGA,090012.10,2823.06472926,S,13715.14968548,E,1,05,2.87,160.00,M,-21.3213,M,,*63
$GPGGA,090012.20,2823.06481819,S,13715.14950460,E,1,05,2.87,160.00,M,-21.3213,M,,*61
$GPGGA,090012.30,2823.06495742,S,13715.14922143,E,1,05,2.87,160.00,M,-21.3213,M,,*65
$GPGGA,090012.40,2823.06504739,S,13715.14903844,E,1,05,2.87,160.00,M,-21.3213,M,,*6A
$GPGGA,090012.50,2823.06513779,S,13715.14885459,E,1,05,2.87,160.00,M,-21.3213,M,,*66
$GPGGA,090012.60,2823.06527876,S,13715.14856786,E,1,05,2.87,160.00,M,-21.3213,M,,*6D
$GPGGA,090012.70,2823.06537007,S,13715.14838216,E,1,05,2.87,160.00,M,-21.3213,M,,*67
$GPGGA,090012.80,2823.06546175,S,13715.14819569,E,1,05,2.87,160.00,M,-21.3213,M,,*66
$GPGGA,090012.90,2823.06560426,S,13715.14790584,E,1,05,2.87,160.00,M,-21.3213,M,,*6D
$GPGGA,090013.00,2823.06569674,S,13715.14771775,E,1,05,2.87,160.00,M,-21.3213,M,,*6A
$GPGGA,090013.10,2823.06578955,S,13715.14752899,E,1,05,2.87,160.00,M,-21.3213,M,,*6B
$GPGGA,090013.20,2823.06593340,S,13715.14723641,E,1,05,2.87,160.00,M,-21.3213,M,,*6E
$GPGGA,090013.30,2823.06602691,S,13715.14704623,E,1,05,2.87,160.00,M,-21.3213,M,,*6C
$GPGGA,090013.40,2823.06612071,S,13715.14685546,E,1,05,2.87,160.00,M,-21.3213,M,,*6A
$GPGGA,090013.50,2823.06626564,S,13715.14656069,E,1,05,2.87,160.00,M,-21.3213,M,,*6B
$GPGGA,090013.60,2823.06636005,S,13715.14636867,E,1,05,2.87,160.00,M,-21.3213,M,,*6B
$GPGGA,090013.70,2823.06645471,S,13715.14617614,E,1,05,2.87,160.00,M,-21.3213,M,,*60
$GPGGA,090013.80,2823.06660079,S,13715.14587904,E,1,05,2.87,160.00,M,-21.3213,M,,*60
$GPGGA,090013.90,2823.06669599,S,13715.14568541,E,1,05,2.87,160.00,M,-21.3213,M,,*6F
$GPGGA,090014.00,2823.06679142,S,13715.14549133,E,1,05,2.87,160.00,M,-21.3213,M,,*60
$GPGGA,090014.10,2823.06688706,S,13715.14529681,E,1,05,2.87,160.00,M,-21.3213,M,,*61
$GPGGA,090014.20,2823.06703430,S,13715.14499734,E,1,05,2.87,160.00,M,-21.3213,M,,*63
$GPGGA,090014.30,2823.06713039,S,13715.14480190,E,1,05,2.87,160.00,M,-21.3213,M,,*6E
$GPGGA,090014.40,2823.06722668,S,13715.14460607,E,1,05,2.87,160.00,M,-21.3213,M,,*6E
$GPGGA,090014.50,2823.06732314,S,13715.14440987,E,1,05,2.87,160.00,M,-21.3213,M,,*65
$GPGGA,090014.60,2823.06747137,S,13715.14410840,E,1,05,2.87,160.00,M,-21.3213,M,,*68
$GPGGA,090014.70,2823.06756821,S,13715.14391143,E,1,05,2.87,160.00,M,-21.3213,M,,*63
$GPGGA,090014.80,2823.06766522,S,13715.14371414,E,1,05,2.87,160.00,M,-21.3213,M,,*68
$GPGGA,090014.90,2823.06776238,S,13715.14351653,E,1,05,2.87,160.00,M,-21.3213,M,,*67
$GPGGA,090015.00,2823.06791143,S,13715.14321338,E,1,05,2.87,160.00,M,-21.3213,M,,*66
$GPGGA,090015.10,2823.06800891,S,13715.14301512,E,1,05,2.87,160.00,M,-21.3213,M,,*6A
$GPGGA,090015.20,2823.06810652,S,13715.14281658,E,1,05,2.87,160.00,M,-21.3213,M,,*6D
$GPGGA,090015.30,2823.06820427,S,13715.14261779,E,1,05,2.87,160.00,M,-21.3213,M,,*63
$GPGGA,090015.40,2823.06835402,S,13715.14231321,E,1,05,2.87,160.00,M,-21.3213,M,,*6B
$GPGGA,090015.50,2823.06845203,S,13715.14211386,E,1,05,2.87,160.00,M,-21.3213,M,,*65
$GPGGA,090015.60,2823.06855016,S,13715.14191429,E,1,05,2.87,160.00,M,-21.3213,M,,*68
$GPGGA,090015.70,2823.06864840,S,13715.14171449,E,1,05,2.87,160.00,M,-21.3213,M,,*68
$GPGGA,090015.80,2823.06874674,S,13715.14151448,E,1,05,2.87,160.00,M,-21.3213,M,,*6C
$GPGGA,090015.90,2823.06889720,S,13715.14120845,E,1,05,2.87,160.00,M,-21.3213,M,,*68
$GPGGA,090016.00,2823.06899576,S,13715.14100799,E,1,05,2.87,160.00,M,-21.3213,M,,*6E
$GPGGA,090016.10,2823.06909441,S,13715.14080735,E,1,05,2.87,160.00,M,-21.3213,M,,*6D
$GPGGA,090016.20,2823.06919315,S,13715.14060653,E,1,05,2.87,160.00,M,-21.3213,M,,*66
$GPGGA,090016.30,2823.06934409,S,13715.14029953,E,1,05,2.87,160.00,M,-21.3213,M,,*60
$GPGGA,090016.40,2823.06944302,S,13715.14009834,E,1,05,2.87,160.00,M,-21.3213,M,,*6E
$GPGGA,090016.50,2823.06954202,S,13715.13989698,E,1,05,2.87,160.00,M,-21.3213,M,,*61
$GPGGA,090016.60,2823.06964109,S,13715.13969547,E,1,05,2.87,160.00,M,-21.3213,M,,*66
$GPGGA,090016.70,2823.06974024,S,13715.13949382,E,1,05,2.87,160.00,M,-21.3213,M,,*65
$GPGGA,090016.80,2823.06989167,S,13715.13918584,E,1,05,2.87,160.00,M,-21.3213,M,,*6A
$GPGGA,090016.90,2823.06999097,S,13715.13898388,E,1,05,2.87,160.00,M,-21.3213,M,,*67
$GPGGA,090017.00,2823.07009033,S,13715.13878180,E,1,05,2.87,160.00,M,-21.3213,M,,*64
$GPGGA,090017.10,2823.07018974,S,13715.13857959,E,1,05,2.87,160.00,M,-21.3213,M,,*6E
$GPGGA,090017.20,2823.07028922,S,13715.13837727,E,1,05,2.87,160.00,M,-21.3213,M,,*6C
$GPGGA,090017.30,2823.07044104,S,13715.13806848,E,1,05,2.87,160.00,M,-21.3213,M,,*6F
$GPGGA,090017.40,2823.07054064,S,13715.13786592,E,1,05,2.87,160.00,M,-21.3213,M,,*63
$GPGGA,090017.50,2823.07064029,S,13715.13766324,E,1,05,2.87,160.00,M,-21.3213,M,,*6D
$GPGGA,090017.60,2823.07073999,S,13715.13746047,E,1,05,2.87,160.00,M,-21.3213,M,,*6E
$GPGGA,090017.70,2823.07083973,S,13715.13725761,E,1,05,2.87,160.00,M,-21.3213,M,,*62
$GPGGA,090017.80,2823.07093952,S,13715.13705465,E,1,05,2.87,160.00,M,-21.3213,M,,*6A
$GPGGA,090017.90,2823.07109172,S,13715.13674511,E,1,05,2.87,160.00,M,-21.3213,M,,*66
$GPGGA,090018.00,2823.07119160,S,13715.13654196,E,1,05,2.87,160.00,M,-21.3213,M,,*6B
$GPGGA,090018.10,2823.07129152,S,13715.13633873,E,1,05,2.87,160.00,M,-21.3213,M,,*6B
$GPGGA,090018.20,2823.07139148,S,13715.13613542,E,1,05,2.87,160.00,M,-21.3213,M,,*6F
$GPGGA,090018.30,2823.07149148,S,13715.13593204,E,1,05,2.87,160.00,M,-21.3213,M,,*67
$GPGGA,090018.40,2823.07164393,S,13715.13562199,E,1,05,2.87,160.00,M,-21.3213,M,,*62
$GPGGA,090018.50,2823.07174400,S,13715.13541846,E,1,05,2.87,160.00,M,-21.3213,M,,*65
$GPGGA,090018.60,2823.07184410,S,13715.13521486,E,1,05,2.87,160.00,M,-21.3213,M,,*6E
$GPGGA,090018.70,2823.07194424,S,13715.13501120,E,1,05,2.87,160.00,M,-21.3213,M,,*62
$GPGGA,090018.80,2823.07204441,S,13715.13480748,E,1,05,2.87,160.00,M,-21.3213,M,,*64
$GPGGA,090018.90,2823.07214460,S,13715.13460370,E,1,05,2.87,160.00,M,-21.3213,M,,*66
$GPGGA,090019.00,2823.07229728,S,13715.13429317,E,1,05,2.87,160.00,M,-21.3213,M,,*63
$GPGGA,090019.10,2823.07239753,S,13715.13408927,E,1,05,2.87,160.00,M,-21.3213,M,,*65
$GPGGA,090019.20,2823.07249781,S,13715.13388532,E,1,05,2.87,160.00,M,-21.3213,M,,*69
$GPGGA,090019.30,2823.07259811,S,13715.13368132,E,1,05,2.87,160.00,M,-21.3213,M,,*65
$GPGGA,090019.40,2823.07269843,S,13715.13347728,E,1,05,2.87,160.00,M,-21.3213,M,,*66
$GPGGA,090019.50,2823.07285127,S,13715.13316643,E,1,05,2.87,160.00,M,-21.3213,M,,*66
$GPGGA,090019.60,2823.07295164,S,13715.13296229,E,1,05,2.87,160.00,M,-21.3213,M,,*62
$GPGGA,090019.70,2823.07305204,S,13715.13275811,E,1,05,2.87,160.00,M,-21.3213,M,,*62
$GPGGA,090019.80,2823.07315245,S,13715.13255388,E,1,05,2.87,160.00,M,-21.3213,M,,*60
$GPGGA,090019.90,2823.07325288,S,13715.13234962,E,1,05,2.87,160.00,M,-21.3213,M,,*6A
$GPGGA,090020.00,2823.07335333,S,13715.13214533,E,1,05,2.87,160.00,M,-21.3213,M,,*63
$GPGGA,090020.10,2823.07350631,S,13715.13183418,E,1,05,2.87,160.00,M,-21.3213,M,,*63
$GPGGA,090020.20,2823.07360680,S,13715.13162981,E,1,05,2.87,160.00,M,-21.3213,M,,*6B
$GPGGA,090020.30,2823.07370730,S,13715.13142541,E,1,05,2.87,160.00,M,-21.3213,M,,*63
$GPGGA,090020.40,2823.07380781,S,13715.13122097,E,1,05,2.87,160.00,M,-21.3213,M,,*69
$GPGGA,090020.50,2823.07390834,S,13715.13101651,E,1,05,2.87,160.00,M,-21.3213,M,,*65
$GPGGA,090020.60,2823.07400889,S,13715.13081202,E,1,05,2.87,160.00,M,-21.3213,M,,*65
$GPGGA,090020.70,2823.07416199,S,13715.13050064,E,1,05,2.87,160.00,M,-21.3213,M,,*65
$GPGGA,090020.80,2823.07426256,S,13715.13029609,E,1,05,2.87,160.00,M,-21.3213,M,,*6A
$GPGGA,090020.90,2823.07436315,S,13715.13009151,E,1,05,2.87,160.00,M,-21.3213,M,,*64
$GPGGA,090021.00,2823.07446374,S,13715.12988691,E,1,05,2.87,160.00,M,-21.3213,M,,*66
$GPGGA,090021.10,2823.07456435,S,13715.12968229,E,1,05,2.87,160.00,M,-21.3213,M,,*6D
$GPGGA,090021.20,2823.07466497,S,13715.12947765,E,1,05,2.87,160.00,M,-21.3213,M,,*65
$GPGGA,090021.30,2823.07481816,S,13715.12916609,E,1,05,2.87,160.00,M,-21.3213,M,,*67
$GPGGA,090021.40,2823.07491881,S,13715.12896140,E,1,05,2.87,160.00,M,-21.3213,M,,*6C
$GPGGA,090021.50,2823.07501946,S,13715.12875669,E,1,05,2.87,160.00,M,-21.3213,M,,*6E
$GPGGA,090021.60,2823.07512012,S,13715.12855197,E,1,05,2.87,160.00,M,-21.3213,M,,*63
$GPGGA,090021.70,2823.07522079,S,13715.12834722,E,1,05,2.87,160.00,M,-21.3213,M,,*63
$GPGGA,090021.80,2823.07537404,S,13715.12803554,E,1,05,2.87,160.00,M,-21.3213,M,,*61
$GPGGA,090021.90,2823.07547473,S,13715.12783076,E,1,05,2.87,160.00,M,-21.3213,M,,*65
$GPGGA,090022.00,2823.07557542,S,13715.12762596,E,1,05,2.87,160.00,M,-21.3213,M,,*69
$GPGGA,090022.10,2823.07567612,S,13715.12742115,E,1,05,2.87,160.00,M,-21.3213,M,,*60
$GPGGA,090022.20,2823.07577683,S,13715.12721633,E,1,05,2.87,160.00,M,-21.3213,M,,*6C
$GPGGA,090022.30,2823.07587755,S,13715.12701149,E,1,05,2.87,160.00,M,-21.3213,M,,*60
$GPGGA,090022.40,2823.07603086,S,13715.12669970,E,1,05,2.87,160.00,M,-21.3213,M,,*6C
$GPGGA,090022.50,2823.07613159,S,13715.12649483,E,1,05,2.87,160.00,M,-21.3213,M,,*6C
$GPGGA,090022.60,2823.07623233,S,13715.12628995,E,1,05,2.87,160.00,M,-21.3213,M,,*6E
$GPGGA,090022.70,2823.07633307,S,13715.12608506,E,1,05,2.87,160.00,M,-21.3213,M,,*6C
$GPGGA,090022.80,2823.07643382,S,13715.12588016,E,1,05,2.87,160.00,M,-21.3213,M,,*66
$GPGGA,090022.90,2823.07653457,S,13715.12567525,E,1,05,2.87,160.00,M,-21.3213,M,,*6D
$GPGGA,090023.00,2823.07668792,S,13715.12536337,E,1,05,2.87,160.00,M,-21.3213,M,,*66
$GPGGA,090023.10,2823.07678869,S,13715.12515843,E,1,05,2.87,160.00,M,-21.3213,M,,*64
$GPGGA,090023.20,2823.07688946,S,13715.12495349,E,1,05,2.87,160.00,M,-21.3213,M,,*6C
$GPGGA,090023.30,2823.07699024,S,13715.12474854,E,1,05,2.87,160.00,M,-21.3213,M,,*68
$GPGGA,090023.40,2823.07709101,S,13715.12454358,E,1,05,2.87,160.00,M,-21.3213,M,,*64
$GPGGA,090023.50,2823.07719180,S,13715.12433861,E,1,05,2.87,160.00,M,-21.3213,M,,*6D
$GPGGA,090023.60,2823.07734518,S,13715.12402666,E,1,05,2.87,160.00,M,-21.3213,M,,*6F
$GPGGA,090023.70,2823.07744598,S,13715.12382168,E,1,05,2.87,160.00,M,-21.3213,M,,*67
$GPGGA,090023.80,2823.07754677,S,13715.12361669,E,1,05,2.87,160.00,M,-21.3213,M,,*60
$GPGGA,090023.90,2823.07764757,S,13715.12341169,E,1,05,2.87,160.00,M,-21.3213,M,,*64
$GPGGA,090024.00,2823.07774837,S,13715.12320668,E,1,05,2.87,160.00,M,-21.3213,M,,*63
$GPGGA,090024.10,2823.07784918,S,13715.12300167,E,1,05,2.87,160.00,M,-21.3213,M,,*6B
$GPGGA,090024.20,2823.07800259,S,13715.12268968,E,1,05,2.87,160.00,M,-21.3213,M,,*6D
$GPGGA,090024.30,2823.07810341,S,13715.12248465,E,1,05,2.87,160.00,M,-21.3213,M,,*67
$GPGGA,090024.40,2823.07820422,S,13715.12227962,E,1,05,2.87,160.00,M,-21.3213,M,,*62
$GPGGA,090024.50,2823.07830504,S,13715.12207459,E,1,05,2.87,160.00,M,-21.3213,M,,*60
$GPGGA,090024.60,2823.07840586,S,13715.12186955,E,1,05,2.87,160.00,M,-21.3213,M,,*65
$GPGGA,090024.70,2823.07850669,S,13715.12166451,E,1,05,2.87,160.00,M,-21.3213,M,,*60
$GPGGA,090024.80,2823.07866012,S,13715.12135247,E,1,05,2.87,160.00,M,-21.3213,M,,*67
$GPGGA,090024.90,2823.07876095,S,13715.12114742,E,1,05,2.87,160.00,M,-21.3213,M,,*6B
$GPGGA,090025.00,2823.07886179,S,13715.12094237,E,1,05,2.87,160.00,M,-21.3213,M,,*61
$GPGGA,090025.10,2823.07896262,S,13715.12073731,E,1,05,2.87,160.00,M,-21.3213,M,,*62
$GPGGA,090025.20,2823.07906346,S,13715.12053224,E,1,05,2.87,160.00,M,-21.3213,M,,*6D
$GPGGA,090025.30,2823.07916430,S,13715.12032718,E,1,05,2.87,160.00,M,-21.3213,M,,*66
$GPGGA,090025.40,2823.07931775,S,13715.12001511,E,1,05,2.87,160.00,M,-21.3213,M,,*6D
$GPGGA,090025.50,2823.07941859,S,13715.11981004,E,1,05,2.87,160.00,M,-21.3213,M,,*69
$GPGGA,090025.60,2823.07951944,S,13715.11960497,E,1,05,2.87,160.00,M,-21.3213,M,,*67
$GPGGA,090025.70,2823.07962029,S,13715.11939989,E,1,05,2.87,160.00,M,-21.3213,M,,*6A
$GPGGA,090025.80,2823.07972114,S,13715.11919481,E,1,05,2.87,160.00,M,-21.3213,M,,*6C
$GPGGA,090025.90,2823.07982199,S,13715.11898973,E,1,05,2.87,160.00,M,-21.3213,M,,*6F
$GPGGA,090026.00,2823.07997546,S,13715.11867764,E,1,05,2.87,160.00,M,-21.3213,M,,*6F
$GPGGA,090026.10,2823.08007631,S,13715.11847256,E,1,05,2.87,160.00,M,-21.3213,M,,*64
$GPGGA,090026.20,2823.08017717,S,13715.11826747,E,1,05,2.87,160.00,M,-21.3213,M,,*61
$GPGGA,090026.30,2823.08027803,S,13715.11806238,E,1,05,2.87,160.00,M,-21.3213,M,,*66
$GPGGA,090026.40,2823.08037889,S,13715.11785729,E,1,05,2.87,160.00,M,-21.3213,M,,*63
$GPGGA,090026.50,2823.08047975,S,13715.11765220,E,1,05,2.87,160.00,M,-21.3213,M,,*65
$GPGGA,090026.60,2823.08063323,S,13715.11734011,E,1,05,2.87,160.00,M,-21.3213,M,,*6D
$GPGGA,090026.70,2823.08073409,S,13715.11713501,E,1,05,2.87,160.00,M,-21.3213,M,,*63
$GPGGA,090026.80,2823.08083496,S,13715.11692992,E,1,05,2.87,160.00,M,-21.3213,M,,*6B
$GPGGA,090026.90,2823.08093583,S,13715.11672482,E,1,05,2.87,160.00,M,-21.3213,M,,*6C
$GPGGA,090027.00,2823.08103669,S,13715.11651972,E,1,05,2.87,160.00,M,-21.3213,M,,*68
$GPGGA,090027.10,2823.08113756,S,13715.11631463,E,1,05,2.87,160.00,M,-21.3213,M,,*6E
$GPGGA,090027.20,2823.08129106,S,13715.11600253,E,1,05,2.87,160.00,M,-21.3213,M,,*60
$GPGGA,090027.30,2823.08139193,S,13715.11579744,E,1,05,2.87,160.00,M,-21.3213,M,,*62
$GPGGA,090027.40,2823.08149281,S,13715.11559234,E,1,05,2.87,160.00,M,-21.3213,M,,*62
$GPGGA,090027.50,2823.08159368,S,13715.11538724,E,1,05,2.87,160.00,M,-21.3213,M,,*67
$GPGGA,090027.60,2823.08169456,S,13715.11518215,E,1,05,2.87,160.00,M,-21.3213,M,,*68
$GPGGA,090027.70,2823.08179543,S,13715.11497705,E,1,05,2.87,160.00,M,-21.3213,M,,*6F
$GPGGA,090027.80,2823.08194894,S,13715.11466496,E,1,05,2.87,160.00,M,-21.3213,M,,*63
$GPGGA,090027.90,2823.08204982,S,13715.11445987,E,1,05,2.87,160.00,M,-21.3213,M,,*62
$GPGGA,090028.00,2823.08215070,S,13715.11425477,E,1,05,2.87,160.00,M,-21.3213,M,,*64
$GPGGA,090028.10,2823.08225159,S,13715.11404968,E,1,05,2.87,160.00,M,-21.3213,M,,*6C
$GPGGA,090028.20,2823.08235247,S,13715.11384459,E,1,05,2.87,160.00,M,-21.3213,M,,*62
$GPGGA,090028.30,2823.08245336,S,13715.11363950,E,1,05,2.87,160.00,M,-21.3213,M,,*6E
$GPGGA,090028.40,2823.08260688,S,13715.11332742,E,1,05,2.87,160.00,M,-21.3213,M,,*67
$GPGGA,090028.50,2823.08270777,S,13715.11312233,E,1,05,2.87,160.00,M,-21.3213,M,,*67
$GPGGA,090028.60,2823.08280866,S,13715.11291725,E,1,05,2.87,160.00,M,-21.3213,M,,*6C
$GPGGA,090028.70,2823.08290955,S,13715.11271217,E,1,05,2.87,160.00,M,-21.3213,M,,*67
$GPGGA,090028.80,2823.08301044,S,13715.11250709,E,1,05,2.87,160.00,M,-21.3213,M,,*61
$GPGGA,090028.90,2823.08311133,S,13715.11230201,E,1,05,2.87,160.00,M,-21.3213,M,,*6B
$GPGGA,090029.00,2823.08326487,S,13715.11198995,E,1,05,2.87,160.00,M,-21.3213,M,,*6A
$GPGGA,090029.10,2823.08336576,S,13715.11178488,E,1,05,2.87,160.00,M,-21.3213,M,,*6A
$GPGGA,090029.20,2823.08346666,S,13715.11157981,E,1,05,2.87,160.00,M,-21.3213,M,,*65
$GPGGA,090029.30,2823.08356756,S,13715.11137474,E,1,05,2.87,160.00,M,-21.3213,M,,*66
$GPGGA,090029.40,2823.08366846,S,13715.11116968,E,1,05,2.87,160.00,M,-21.3213,M,,*6F
$GPGGA,090029.50,2823.08376937,S,13715.11096462,E,1,05,2.87,160.00,M,-21.3213,M,,*66
$GPGGA,090029.60,2823.08392292,S,13715.11065259,E,1,05,2.87,160.00,M,-21.3213,M,,*69
$GPGGA,090029.70,2823.08402382,S,13715.11044754,E,1,05,2.87,160.00,M,-21.3213,M,,*6D
$GPGGA,090029.80,2823.08412473,S,13715.11024249,E,1,05,2.87,160.00,M,-21.3213,M,,*65
$GPGGA,090029.90,2823.08422564,S,13715.11003745,E,1,05,2.87,160.00,M,-21.3213,M,,*6C
$GPGGA,090030.00,2823.08432655,S,13715.10983241,E,1,05,2.87,160.00,M,-21.3213,M,,*6C
$GPGGA,090030.10,2823.08442747,S,13715.10962738,E,1,05,2.87,160.00,M,-21.3213,M,,*6C
$GPGGA,090030.20,2823.08458103,S,13715.10931538,E,1,05,2.87,160.00,M,-21.3213,M,,*66
$GPGGA,090030.30,2823.08468195,S,13715.10911036,E,1,05,2.87,160.00,M,-21.3213,M,,*62
$GPGGA,090030.40,2823.08478287,S,13715.10890534,E,1,05,2.87,160.00,M,-21.3213,M,,*6B
$GPGGA,090030.50,2823.08488380,S,13715.10870033,E,1,05,2.87,160.00,M,-21.3213,M,,*6F
$GPGGA,090030.60,2823.08498472,S,13715.10849533,E,1,05,2.87,160.00,M,-21.3213,M,,*68
$GPGGA,090030.70,2823.08508565,S,13715.10829033,E,1,05,2.87,160.00,M,-21.3213,M,,*65
$GPGGA,090030.80,2823.08523924,S,13715.10797839,E,1,05,2.87,160.00,M,-21.3213,M,,*62
$GPGGA,090030.90,2823.08534017,S,13715.10777341,E,1,05,2.87,160.00,M,-21.3213,M,,*66
$GPGGA,090031.00,2823.08544110,S,13715.10756843,E,1,05,2.87,160.00,M,-21.3213,M,,*65
$GPGGA,090031.10,2823.08554204,S,13715.10736346,E,1,05,2.87,160.00,M,-21.3213,M,,*6B
$GPGGA,090031.20,2823.08564298,S,13715.10715851,E,1,05,2.87,160.00,M,-21.3213,M,,*62
$GPGGA,090031.30,2823.08574392,S,13715.10695356,E,1,05,2.87,160.00,M,-21.3213,M,,*6C
$GPGGA,090031.40,2823.08589754,S,13715.10664168,E,1,05,2.87,160.00,M,-21.3213,M,,*66
$GPGGA,090031.50,2823.08599849,S,13715.10643675,E,1,05,2.87,160.00,M,-21.3213,M,,*6B
$GPGGA,090031.60,2823.08609944,S,13715.10623183,E,1,05,2.87,160.00,M,-21.3213,M,,*66
$GPGGA,090031.70,2823.08620039,S,13715.10602692,E,1,05,2.87,160.00,M,-21.3213,M,,*6B
$GPGGA,090031.80,2823.08630135,S,13715.10582202,E,1,05,2.87,160.00,M,-21.3213,M,,*6E
$GPGGA,090031.90,2823.08640231,S,13715.10561713,E,1,05,2.87,160.00,M,-21.3213,M,,*67
$GPGGA,090032.00,2823.08655597,S,13715.10530534,E,1,05,2.87,160.00,M,-21.3213,M,,*61
$GPGGA,090032.10,2823.08665694,S,13715.10510048,E,1,05,2.87,160.00,M,-21.3213,M,,*6F
$GPGGA,090032.20,2823.08675791,S,13715.10489563,E,1,05,2.87,160.00,M,-21.3213,M,,*64
$GPGGA,090032.30,2823.08685889,S,13715.10469079,E,1,05,2.87,160.00,M,-21.3213,M,,*6C
$GPGGA,090032.40,2823.08695987,S,13715.10448597,E,1,05,2.87,160.00,M,-21.3213,M,,*63
$GPGGA,090032.50,2823.08706086,S,13715.10428116,E,1,05,2.87,160.00,M,-21.3213,M,,*6A
$GPGGA,090032.60,2823.08721456,S,13715.10396948,E,1,05,2.87,160.00,M,-21.3213,M,,*64
$GPGGA,090032.70,2823.08731556,S,13715.10376471,E,1,05,2.87,160.00,M,-21.3213,M,,*6C
$GPGGA,090032.80,2823.08741656,S,13715.10355995,E,1,05,2.87,160.00,M,-21.3213,M,,*61
$GPGGA,090032.90,2823.08751757,S,13715.10335521,E,1,05,2.87,160.00,M,-21.3213,M,,*64
$GPGGA,090033.00,2823.08761858,S,13715.10315049,E,1,05,2.87,160.00,M,-21.3213,M,,*66
$GPGGA,090033.10,2823.08771959,S,13715.10294578,E,1,05,2.87,160.00,M,-21.3213,M,,*69
$GPGGA,090033.20,2823.08787335,S,13715.10263425,E,1,05,2.87,160.00,M,-21.3213,M,,*62
$GPGGA,090033.30,2823.08797439,S,13715.10242959,E,1,05,2.87,160.00,M,-21.3213,M,,*6C
$GPGGA,090033.40,2823.08807542,S,13715.10222495,E,1,05,2.87,160.00,M,-21.3213,M,,*6B
$GPGGA,090033.50,2823.08817647,S,13715.10202033,E,1,05,2.87,160.00,M,-21.3213,M,,*67
$GPGGA,090033.60,2823.08827752,S,13715.10181574,E,1,05,2.87,160.00,M,-21.3213,M,,*6C
$GPGGA,090033.70,2823.08837857,S,13715.10161117,E,1,05,2.87,160.00,M,-21.3213,M,,*69
$GPGGA,090033.80,2823.08853241,S,13715.10129983,E,1,05,2.87,160.00,M,-21.3213,M,,*60
$GPGGA,090033.90,2823.08863349,S,13715.10109531,E,1,05,2.87,160.00,M,-21.3213,M,,*6C
$GPGGA,090034.00,2823.08873457,S,13715.10089083,E,1,05,2.87,160.00,M,-21.3213,M,,*6E
$GPGGA,090034.10,2823.08883566,S,13715.10068637,E,1,05,2.87,160.00,M,-21.3213,M,,*65
$GPGGA,090034.20,2823.08893676,S,13715.10048194,E,1,05,2.87,160.00,M,-21.3213,M,,*69
$GPGGA,090034.30,2823.08903787,S,13715.10027754,E,1,05,2.87,160.00,M,-21.3213,M,,*6C
$GPGGA,090034.40,2823.08919180,S,13715.09996644,E,1,05,2.87,160.00,M,-21.3213,M,,*6A
$GPGGA,090034.50,2823.08929293,S,13715.09976212,E,1,05,2.87,160.00,M,-21.3213,M,,*60
$GPGGA,090034.60,2823.08939408,S,13715.09955783,E,1,05,2.87,160.00,M,-21.3213,M,,*6A
$GPGGA,090034.70,2823.08949523,S,13715.09935358,E,1,05,2.87,160.00,M,-21.3213,M,,*60
$GPGGA,090034.80,2823.08959639,S,13715.09914936,E,1,05,2.87,160.00,M,-21.3213,M,,*67
$GPGGA,090034.90,2823.08969756,S,13715.09894518,E,1,05,2.87,160.00,M,-21.3213,M,,*64
$GPGGA,090035.00,2823.08985162,S,13715.09863440,E,1,05,2.87,160.00,M,-21.3213,M,,*6B
$GPGGA,090035.10,2823.08995282,S,13715.09843032,E,1,05,2.87,160.00,M,-21.3213,M,,*65
$GPGGA,090035.20,2823.09005404,S,13715.09822628,E,1,05,2.87,160.00,M,-21.3213,M,,*65
$GPGGA,090035.30,2823.09015527,S,13715.09802229,E,1,05,2.87,160.00,M,-21.3213,M,,*62
$GPGGA,090035.40,2823.09025651,S,13715.09781835,E,1,05,2.87,160.00,M,-21.3213,M,,*67
$GPGGA,090035.50,2823.09035777,S,13715.09761445,E,1,05,2.87,160.00,M,-21.3213,M,,*67
$GPGGA,090035.60,2823.09051198,S,13715.09730408,E,1,05,2.87,160.00,M,-21.3213,M,,*6C
$GPGGA,090035.70,2823.09061328,S,13715.09710031,E,1,05,2.87,160.00,M,-21.3213,M,,*6B
$GPGGA,090035.80,2823.09071459,S,13715.09689660,E,1,05,2.87,160.00,M,-21.3213,M,,*67
$GPGGA,090035.90,2823.09081592,S,13715.09669294,E,1,05,2.87,160.00,M,-21.3213,M,,*6E
$GPGGA,090036.00,2823.09091727,S,13715.09648935,E,1,05,2.87,160.00,M,-21.3213,M,,*6A
$GPGGA,090036.10,2823.09107165,S,13715.09617940,E,1,05,2.87,160.00,M,-21.3213,M,,*6D
$GPGGA,090036.20,2823.09117305,S,13715.09597596,E,1,05,2.87,160.00,M,-21.3213,M,,*67
$GPGGA,090036.30,2823.09127447,S,13715.09577259,E,1,05,2.87,160.00,M,-21.3213,M,,*6E
$GPGGA,090036.40,2823.09137590,S,13715.09556930,E,1,05,2.87,160.00,M,-21.3213,M,,*64
$GPGGA,090036.50,2823.09147736,S,13715.09536608,E,1,05,2.87,160.00,M,-21.3213,M,,*6E
$GPGGA,090036.60,2823.09157884,S,13715.09516294,E,1,05,2.87,160.00,M,-21.3213,M,,*69
$GPGGA,090036.70,2823.09173347,S,13715.09485363,E,1,05,2.87,160.00,M,-21.3213,M,,*68
$GPGGA,090036.80,2823.09183502,S,13715.09465069,E,1,05,2.87,160.00,M,-21.3213,M,,*68
$GPGGA,090036.90,2823.09193659,S,13715.09444783,E,1,05,2.87,160.00,M,-21.3213,M,,*65
$GPGGA,090037.00,2823.09203818,S,13715.09424507,E,1,05,2.87,160.00,M,-21.3213,M,,*64
$GPGGA,090037.10,2823.09213980,S,13715.09404241,E,1,05,2.87,160.00,M,-21.3213,M,,*63
$GPGGA,090037.20,2823.09229471,S,13715.09373378,E,1,05,2.87,160.00,M,-21.3213,M,,*66
$GPGGA,090037.30,2823.09239641,S,13715.09353136,E,1,05,2.87,160.00,M,-21.3213,M,,*6D
$GPGGA,090037.40,2823.09249814,S,13715.09332905,E,1,05,2.87,160.00,M,-21.3213,M,,*6C
$GPGGA,090037.50,2823.09259990,S,13715.09312686,E,1,05,2.87,160.00,M,-21.3213,M,,*67
$GPGGA,090037.60,2823.09270170,S,13715.09292478,E,1,05,2.87,160.00,M,-21.3213,M,,*63
$GPGGA,090037.70,2823.09280352,S,13715.09272283,E,1,05,2.87,160.00,M,-21.3213,M,,*63
$GPGGA,090037.80,2823.09295883,S,13715.09241521,E,1,05,2.87,160.00,M,-21.3213,M,,*60
$GPGGA,090037.90,2823.09306076,S,13715.09221358,E,1,05,2.87,160.00,M,-21.3213,M,,*66
$GPGGA,090038.00,2823.09316273,S,13715.09201208,E,1,05,2.87,160.00,M,-21.3213,M,,*60
$GPGGA,090038.10,2823.09326474,S,13715.09181073,E,1,05,2.87,160.00,M,-21.3213,M,,*66
$GPGGA,090038.20,2823.09336679,S,13715.09160954,E,1,05,2.87,160.00,M,-21.3213,M,,*68
$GPGGA,090038.30,2823.09352253,S,13715.09130299,E,1,05,2.87,160.00,M,-21.3213,M,,*68
$GPGGA,090038.40,2823.09362470,S,13715.09110218,E,1,05,2.87,160.00,M,-21.3213,M,,*60
$GPGGA,090038.50,2823.09372693,S,13715.09090154,E,1,05,2.87,160.00,M,-21.3213,M,,*6D
$GPGGA,090038.60,2823.09382921,S,13715.09070109,E,1,05,2.87,160.00,M,-21.3213,M,,*61
$GPGGA,090038.70,2823.09393154,S,13715.09050082,E,1,05,2.87,160.00,M,-21.3213,M,,*6A
$GPGGA,090038.80,2823.09408779,S,13715.09019559,E,1,05,2.87,160.00,M,-21.3213,M,,*67
$GPGGA,090038.90,2823.09419027,S,13715.08999580,E,1,05,2.87,160.00,M,-21.3213,M,,*6E
$GPGGA,090039.00,2823.09429282,S,13715.08979622,E,1,05,2.87,160.00,M,-21.3213,M,,*6D
$GPGGA,090039.10,2823.09439542,S,13715.08959686,E,1,05,2.87,160.00,M,-21.3213,M,,*6A
$GPGGA,090039.20,2823.09449809,S,13715.08939774,E,1,05,2.87,160.00,M,-21.3213,M,,*66
$GPGGA,090039.30,2823.09465498,S,13715.08909413,E,1,05,2.87,160.00,M,-21.3213,M,,*6C
$GPGGA,090039.40,2823.09475784,S,13715.08889559,E,1,05,2.87,160.00,M,-21.3213,M,,*62
$GPGGA,090039.50,2823.09486077,S,13715.08869731,E,1,05,2.87,160.00,M,-21.3213,M,,*66
$GPGGA,090039.60,2823.09496378,S,13715.08849930,E,1,05,2.87,160.00,M,-21.3213,M,,*65
$GPGGA,090039.70,2823.09506686,S,13715.08830158,E,1,05,2.87,160.00,M,-21.3213,M,,*60
$GPGGA,090039.80,2823.09522455,S,13715.08799997,E,1,05,2.87,160.00,M,-21.3213,M,,*62
$GPGGA,090039.90,2823.09532787,S,13715.08780296,E,1,05,2.87,160.00,M,-21.3213,M,,*6C
$GPGGA,090040.00,2823.09543127,S,13715.08760627,E,1,05,2.87,160.00,M,-21.3213,M,,*61
$GPGGA,090040.10,2823.09553477,S,13715.08740992,E,1,05,2.87,160.00,M,-21.3213,M,,*62
$GPGGA,090040.20,2823.09563836,S,13715.08721391,E,1,05,2.87,160.00,M,-21.3213,M,,*65
$GPGGA,090040.30,2823.09579702,S,13715.08691476,E,1,05,2.87,160.00,M,-21.3213,M,,*63
$GPGGA,090040.40,2823.09590090,S,13715.08671963,E,1,05,2.87,160.00,M,-21.3213,M,,*68
$GPGGA,090040.50,2823.09600488,S,13715.08652489,E,1,05,2.87,160.00,M,-21.3213,M,,*66
$GPGGA,090040.60,2823.09610898,S,13715.08633056,E,1,05,2.87,160.00,M,-21.3213,M,,*68
$GPGGA,090040.70,2823.09626861,S,13715.08603381,E,1,05,2.87,160.00,M,-21.3213,M,,*60
$GPGGA,090040.80,2823.09637305,S,13715.08584051,E,1,05,2.87,160.00,M,-21.3213,M,,*64
$GPGGA,090040.90,2823.09647761,S,13715.08564767,E,1,05,2.87,160.00,M,-21.3213,M,,*68
$GPGGA,090041.00,2823.09658230,S,13715.08545532,E,1,05,2.87,160.00,M,-21.3213,M,,*6E
$GPGGA,090041.10,2823.09674307,S,13715.08516139,E,1,05,2.87,160.00,M,-21.3213,M,,*6D
$GPGGA,090041.20,2823.09684816,S,13715.08497025,E,1,05,2.87,160.00,M,-21.3213,M,,*6E
$GPGGA,090041.30,2823.09695340,S,13715.08477965,E,1,05,2.87,160.00,M,-21.3213,M,,*64
$GPGGA,090041.40,2823.09705880,S,13715.08458961,E,1,05,2.87,160.00,M,-21.3213,M,,*65
$GPGGA,090041.50,2823.09722091,S,13715.08429900,E,1,05,2.87,160.00,M,-21.3213,M,,*68
$GPGGA,090041.60,2823.09732690,S,13715.08411017,E,1,05,2.87,160.00,M,-21.3213,M,,*69
$GPGGA,090041.70,2823.09743294,S,13715.08392219,E,1,05,2.87,160.00,M,-21.3213,M,,*6E
$GPGGA,090041.80,2823.09753915,S,13715.08373487,E,1,05,2.87,160.00,M,-21.3213,M,,*6C
$GPGGA,090041.90,2823.09770285,S,13715.08344817,E,1,05,2.87,160.00,M,-21.3213,M,,*6F
$GPGGA,090042.00,2823.09780962,S,13715.08326251,E,1,05,2.87,160.00,M,-21.3213,M,,*64
$GPGGA,090042.10,2823.09791660,S,13715.08307760,E,1,05,2.87,160.00,M,-21.3213,M,,*6C
$GPGGA,090042.20,2823.09808173,S,13715.08279436,E,1,05,2.87,160.00,M,-21.3213,M,,*6D
$GPGGA,090042.30,2823.09818933,S,13715.08261132,E,1,05,2.87,160.00,M,-21.3213,M,,*69
$GPGGA,090042.40,2823.09829717,S,13715.08242911,E,1,05,2.87,160.00,M,-21.3213,M,,*6C
$GPGGA,090042.50,2823.09840523,S,13715.08224776,E,1,05,2.87,160.00,M,-21.3213,M,,*68
$GPGGA,090042.60,2823.09857248,S,13715.08196969,E,1,05,2.87,160.00,M,-21.3213,M,,*6D
$GPGGA,090042.70,2823.09868128,S,13715.08179052,E,1,05,2.87,160.00,M,-21.3213,M,,*65
$GPGGA,090042.80,2823.09879035,S,13715.08161231,E,1,05,2.87,160.00,M,-21.3213,M,,*69
$GPGGA,090042.90,2823.09895951,S,13715.08133879,E,1,05,2.87,160.00,M,-21.3213,M,,*60
$GPGGA,090043.00,2823.09906941,S,13715.08116303,E,1,05,2.87,160.00,M,-21.3213,M,,*63
$GPGGA,090043.10,2823.09917961,S,13715.08098833,E,1,05,2.87,160.00,M,-21.3213,M,,*6F
$GPGGA,090043.20,2823.09935094,S,13715.08071994,E,1,05,2.87,160.00,M,-21.3213,M,,*64
$GPGGA,090043.30,2823.09946208,S,13715.08054798,E,1,05,2.87,160.00,M,-21.3213,M,,*63
$GPGGA,090043.40,2823.09957356,S,13715.08037720,E,1,05,2.87,160.00,M,-21.3213,M,,*68
$GPGGA,090043.50,2823.09974736,S,13715.08011455,E,1,05,2.87,160.00,M,-21.3213,M,,*6F
$GPGGA,090043.60,2823.09985990,S,13715.07994681,E,1,05,2.87,160.00,M,-21.3213,M,,*60
$GPGGA,090043.70,2823.10003570,S,13715.07968862,E,1,05,2.87,160.00,M,-21.3213,M,,*6C
$GPGGA,090043.80,2823.10014942,S,13715.07952414,E,1,05,2.87,160.00,M,-21.3213,M,,*6C
$GPGGA,090043.90,2823.10026356,S,13715.07936108,E,1,05,2.87,160.00,M,-21.3213,M,,*69
$GPGGA,090044.00,2823.10044241,S,13715.07910980,E,1,05,2.87,160.00,M,-21.3213,M,,*68
$GPGGA,090044.10,2823.10055788,S,13715.07895034,E,1,05,2.87,160.00,M,-21.3213,M,,*63
$GPGGA,090044.20,2823.10073923,S,13715.07870442,E,1,05,2.87,160.00,M,-21.3213,M,,*65
$GPGGA,090044.30,2823.10085617,S,13715.07854882,E,1,05,2.87,160.00,M,-21.3213,M,,*63
$GPGGA,090044.40,2823.10104026,S,13715.07830866,E,1,05,2.87,160.00,M,-21.3213,M,,*60
$GPGGA,090044.50,2823.10115882,S,13715.07815718,E,1,05,2.87,160.00,M,-21.3213,M,,*66
$GPGGA,090044.60,2823.10134593,S,13715.07792321,E,1,05,2.87,160.00,M,-21.3213,M,,*65
$GPGGA,090044.70,2823.10146629,S,13715.07777611,E,1,05,2.87,160.00,M,-21.3213,M,,*6E
$GPGGA,090044.80,2823.10158733,S,13715.07763083,E,1,05,2.87,160.00,M,-21.3213,M,,*6C
$GPGGA,090044.90,2823.10177911,S,13715.07740632,E,1,05,2.87,160.00,M,-21.3213,M,,*63
$GPGGA,090045.00,2823.10197324,S,13715.07718609,E,1,05,2.87,160.00,M,-21.3213,M,,*6C
$GPGGA,090045.10,2823.10209788,S,13715.07704854,E,1,05,2.87,160.00,M,-21.3213,M,,*60
$GPGGA,090045.20,2823.10229611,S,13715.07683590,E,1,05,2.87,160.00,M,-21.3213,M,,*6B
$GPGGA,090045.30,2823.10242331,S,13715.07670352,E,1,05,2.87,160.00,M,-21.3213,M,,*64
$GPGGA,090045.40,2823.10262613,S,13715.07649895,E,1,05,2.87,160.00,M,-21.3213,M,,*6E
$GPGGA,090045.50,2823.10275626,S,13715.07637202,E,1,05,2.87,160.00,M,-21.3213,M,,*62
$GPGGA,090045.60,2823.10296425,S,13715.07617605,E,1,05,2.87,160.00,M,-21.3213,M,,*6C
$GPGGA,090045.70,2823.10309775,S,13715.07605482,E,1,05,2.87,160.00,M,-21.3213,M,,*62
$GPGGA,090045.80,2823.10331161,S,13715.07586800,E,1,05,2.87,160.00,M,-21.3213,M,,*6B
$GPGGA,090045.90,2823.10344900,S,13715.07575270,E,1,05,2.87,160.00,M,-21.3213,M,,*66
$GPGGA,090046.00,2823.10366918,S,13715.07557509,E,1,05,2.87,160.00,M,-21.3213,M,,*6C
$GPGGA,090046.10,2823.10381058,S,13715.07546528,E,1,05,2.87,160.00,M,-21.3213,M,,*6A
$GPGGA,090046.20,2823.10403684,S,13715.07529599,E,1,05,2.87,160.00,M,-21.3213,M,,*60
$GPGGA,090046.30,2823.10418216,S,13715.07519106,E,1,05,2.87,160.00,M,-21.3213,M,,*65
$GPGGA,090046.40,2823.10441421,S,13715.07502927,E,1,05,2.87,160.00,M,-21.3213,M,,*6D
$GPGGA,090046.50,2823.10464956,S,13715.07487173,E,1,05,2.87,160.00,M,-21.3213,M,,*63
$GPGGA,090046.60,2823.10480087,S,13715.07477371,E,1,05,2.87,160.00,M,-21.3213,M,,*60
$GPGGA,090046.70,2823.10504153,S,13715.07462258,E,1,05,2.87,160.00,M,-21.3213,M,,*6A
$GPGGA,090046.80,2823.10519639,S,13715.07452828,E,1,05,2.87,160.00,M,-21.3213,M,,*6C
$GPGGA,090046.90,2823.10544206,S,13715.07438298,E,1,05,2.87,160.00,M,-21.3213,M,,*60
$GPGGA,090047.00,2823.10560031,S,13715.07429206,E,1,05,2.87,160.00,M,-21.3213,M,,*6F
$GPGGA,090047.10,2823.10575991,S,13715.07420231,E,1,05,2.87,160.00,M,-21.3213,M,,*64
$GPGGA,090047.20,2823.10601218,S,13715.07406427,E,1,05,2.87,160.00,M,-21.3213,M,,*68
$GPGGA,090047.30,2823.10617494,S,13715.07397750,E,1,05,2.87,160.00,M,-21.3213,M,,*60
$GPGGA,090047.40,2823.10643152,S,13715.07384418,E,1,05,2.87,160.00,M,-21.3213,M,,*64
$GPGGA,090047.50,2823.10659726,S,13715.07376015,E,1,05,2.87,160.00,M,-21.3213,M,,*6F
$GPGGA,090047.60,2823.10685786,S,13715.07363114,E,1,05,2.87,160.00,M,-21.3213,M,,*63
$GPGGA,090047.70,2823.10702640,S,13715.07354963,E,1,05,2.87,160.00,M,-21.3213,M,,*6B
$GPGGA,090047.80,2823.10729075,S,13715.07342458,E,1,05,2.87,160.00,M,-21.3213,M,,*6F
$GPGGA,090047.90,2823.10746192,S,13715.07334538,E,1,05,2.87,160.00,M,-21.3213,M,,*69
$GPGGA,090048.00,2823.10763413,S,13715.07326698,E,1,05,2.87,160.00,M,-21.3213,M,,*6E
$GPGGA,090048.10,2823.10790336,S,13715.07314688,E,1,05,2.87,160.00,M,-21.3213,M,,*63
$GPGGA,090048.20,2823.10807795,S,13715.07307053,E,1,05,2.87,160.00,M,-21.3213,M,,*6E
$GPGGA,090048.30,2823.10825350,S,13715.07299490,E,1,05,2.87,160.00,M,-21.3213,M,,*6F
$GPGGA,090048.40,2823.10852712,S,13715.07287919,E,1,05,2.87,160.00,M,-21.3213,M,,*69
$GPGGA,090048.50,2823.10870481,S,13715.07280539,E,1,05,2.87,160.00,M,-21.3213,M,,*68
$GPGGA,090048.60,2823.10888337,S,13715.07273222,E,1,05,2.87,160.00,M,-21.3213,M,,*67
$GPGGA,090048.70,2823.10916091,S,13715.07262041,E,1,05,2.87,160.00,M,-21.3213,M,,*68
$GPGGA,090048.80,2823.10934139,S,13715.07254887,E,1,05,2.87,160.00,M,-21.3213,M,,*63
$GPGGA,090048.90,2823.10952265,S,13715.07247791,E,1,05,2.87,160.00,M,-21.3213,M,,*62
$GPGGA,090049.00,2823.10980370,S,13715.07236954,E,1,05,2.87,160.00,M,-21.3213,M,,*61
$GPGGA,090049.10,2823.10998668,S,13715.07230002,E,1,05,2.87,160.00,M,-21.3213,M,,*69
$GPGGA,090049.20,2823.11017036,S,13715.07223100,E,1,05,2.87,160.00,M,-21.3213,M,,*69
$GPGGA,090049.30,2823.11045452,S,13715.07212569,E,1,05,2.87,160.00,M,-21.3213,M,,*60
$GPGGA,090049.40,2823.11063973,S,13715.07205795,E,1,05,2.87,160.00,M,-21.3213,M,,*6A
$GPGGA,090049.50,2823.11082557,S,13715.07199066,E,1,05,2.87,160.00,M,-21.3213,M,,*63
$GPGGA,090049.60,2823.11111250,S,13715.07188804,E,1,05,2.87,160.00,M,-21.3213,M,,*67
$GPGGA,090049.70,2823.11129970,S,13715.07182189,E,1,05,2.87,160.00,M,-21.3213,M,,*62
$GPGGA,090049.80,2823.11148745,S,13715.07175613,E,1,05,2.87,160.00,M,-21.3213,M,,*6E
$GPGGA,090049.90,2823.11167574,S,13715.07169076,E,1,05,2.87,160.00,M,-21.3213,M,,*6A
$GPGGA,090050.00,2823.11196580,S,13715.07159114,E,1,05,2.87,160.00,M,-21.3213,M,,*68
$GPGGA,090050.10,2823.11215525,S,13715.07152674,E,1,05,2.87,160.00,M,-21.3213,M,,*64
$GPGGA,090050.20,2823.11234518,S,13715.07146268,E,1,05,2.87,160.00,M,-21.3213,M,,*66
$GPGGA,090050.30,2823.11253557,S,13715.07139895,E,1,05,2.87,160.00,M,-21.3213,M,,*6D
$GPGGA,090050.40,2823.11282830,S,13715.07130188,E,1,05,2.87,160.00,M,-21.3213,M,,*66
$GPGGA,090050.50,2823.11301968,S,13715.07123898,E,1,05,2.87,160.00,M,-21.3213,M,,*6B
$GPGGA,090050.60,2823.11321147,S,13715.07117637,E,1,05,2.87,160.00,M,-21.3213,M,,*63
$GPGGA,090050.70,2823.11340365,S,13715.07111404,E,1,05,2.87,160.00,M,-21.3213,M,,*63
$GPGGA,090050.80,2823.11369865,S,13715.07101913,E,1,05,2.87,160.00,M,-21.3213,M,,*66
$GPGGA,090050.90,2823.11389168,S,13715.07095751,E,1,05,2.87,160.00,M,-21.3213,M,,*69
$GPGGA,090051.00,2823.11408505,S,13715.07089613,E,1,05,2.87,160.00,M,-21.3213,M,,*6A
$GPGGA,090051.10,2823.11427876,S,13715.07083499,E,1,05,2.87,160.00,M,-21.3213,M,,*65
$GPGGA,090051.20,2823.11457569,S,13715.07074192,E,1,05,2.87,160.00,M,-21.3213,M,,*64
$GPGGA,090051.30,2823.11477012,S,13715.07068139,E,1,05,2.87,160.00,M,-21.3213,M,,*62
$GPGGA,090051.40,2823.11496484,S,13715.07062106,E,1,05,2.87,160.00,M,-21.3213,M,,*67
$GPGGA,090051.50,2823.11515984,S,13715.07056094,E,1,05,2.87,160.00,M,-21.3213,M,,*6C
$GPGGA,090051.60,2823.11535512,S,13715.07050102,E,1,05,2.87,160.00,M,-21.3213,M,,*66
$GPGGA,090051.70,2823.11565403,S,13715.07040981,E,1,05,2.87,160.00,M,-21.3213,M,,*61
$GPGGA,090051.80,2823.11584989,S,13715.07035038,E,1,05,2.87,160.00,M,-21.3213,M,,*67
$GPGGA,090051.90,2823.11604599,S,13715.07029112,E,1,05,2.87,160.00,M,-21.3213,M,,*64
$GPGGA,090052.00,2823.11624233,S,13715.07023203,E,1,05,2.87,160.00,M,-21.3213,M,,*62
$GPGGA,090052.10,2823.11643888,S,13715.07017310,E,1,05,2.87,160.00,M,-21.3213,M,,*6C
$GPGGA,090052.20,2823.11673941,S,13715.07008342,E,1,05,2.87,160.00,M,-21.3213,M,,*61
$GPGGA,090052.30,2823.11693644,S,13715.07002489,E,1,05,2.87,160.00,M,-21.3213,M,,*6E
$GPGGA,090052.40,2823.11713367,S,13715.06996650,E,1,05,2.87,160.00,M,-21.3213,M,,*67
$GPGGA,090052.50,2823.11733109,S,13715.06990825,E,1,05,2.87,160.00,M,-21.3213,M,,*64
$GPGGA,090052.60,2823.11752869,S,13715.06985014,E,1,05,2.87,160.00,M,-21.3213,M,,*61
$GPGGA,090052.70,2823.11783053,S,13715.06976171,E,1,05,2.87,160.00,M,-21.3213,M,,*63
$GPGGA,090052.80,2823.11802852,S,13715.06970392,E,1,05,2.87,160.00,M,-21.3213,M,,*6A
$GPGGA,090052.90,2823.11822667,S,13715.06964624,E,1,05,2.87,160.00,M,-21.3213,M,,*6C
$GPGGA,090053.00,2823.11842498,S,13715.06958868,E,1,05,2.87,160.00,M,-21.3213,M,,*69
$GPGGA,090053.10,2823.11862343,S,13715.06953123,E,1,05,2.87,160.00,M,-21.3213,M,,*66
$GPGGA,090053.20,2823.11892633,S,13715.06944382,E,1,05,2.87,160.00,M,-21.3213,M,,*67
$GPGGA,090053.30,2823.11912510,S,13715.06938664,E,1,05,2.87,160.00,M,-21.3213,M,,*6B
$GPGGA,090053.40,2823.11932400,S,13715.06932955,E,1,05,2.87,160.00,M,-21.3213,M,,*69
$GPGGA,090053.50,2823.11952303,S,13715.06927256,E,1,05,2.87,160.00,M,-21.3213,M,,*66
$GPGGA,090053.60,2823.11972217,S,13715.06921565,E,1,05,2.87,160.00,M,-21.3213,M,,*62
$GPGGA,090053.70,2823.12002594,S,13715.06912908,E,1,05,2.87,160.00,M,-21.3213,M,,*65
$GPGGA,090053.80,2823.12022534,S,13715.06907239,E,1,05,2.87,160.00,M,-21.3213,M,,*6F
$GPGGA,090053.90,2823.12042485,S,13715.06901579,E,1,05,2.87,160.00,M,-21.3213,M,,*66
$GPGGA,090054.00,2823.12062446,S,13715.06895926,E,1,05,2.87,160.00,M,-21.3213,M,,*6F
$GPGGA,090054.10,2823.12082417,S,13715.06890280,E,1,05,2.87,160.00,M,-21.3213,M,,*66
$GPGGA,090054.20,2823.12112864,S,13715.06881691,E,1,05,2.87,160.00,M,-21.3213,M,,*61
$GPGGA,090054.30,2823.12132856,S,13715.06876064,E,1,05,2.87,160.00,M,-21.3213,M,,*67
$GPGGA,090054.40,2823.12152856,S,13715.06870443,E,1,05,2.87,160.00,M,-21.3213,M,,*61
$GPGGA,090054.50,2823.12172864,S,13715.06864829,E,1,05,2.87,160.00,M,-21.3213,M,,*66
$GPGGA,090054.60,2823.12192880,S,13715.06859220,E,1,05,2.87,160.00,M,-21.3213,M,,*6C
$GPGGA,090054.70,2823.12212904,S,13715.06853618,E,1,05,2.87,160.00,M,-21.3213,M,,*6E
$GPGGA,090054.80,2823.12243419,S,13715.06845095,E,1,05,2.87,160.00,M,-21.3213,M,,*60
$GPGGA,090054.90,2823.12263459,S,13715.06839507,E,1,05,2.87,160.00,M,-21.3213,M,,*62
$GPGGA,090055.00,2823.12283506,S,13715.06833924,E,1,05,2.87,160.00,M,-21.3213,M,,*68
$GPGGA,090055.10,2823.12303559,S,13715.06828347,E,1,05,2.87,160.00,M,-21.3213,M,,*6F
$GPGGA,090055.20,2823.12323619,S,13715.06822774,E,1,05,2.87,160.00,M,-21.3213,M,,*67
$GPGGA,090055.30,2823.12343684,S,13715.06817207,E,1,05,2.87,160.00,M,-21.3213,M,,*63
$GPGGA,090055.40,2823.12374251,S,13715.06808737,E,1,05,2.87,160.00,M,-21.3213,M,,*64
$GPGGA,090055.50,2823.12394329,S,13715.06803182,E,1,05,2.87,160.00,M,-21.3213,M,,*66
$GPGGA,090055.60,2823.12414413,S,13715.06797630,E,1,05,2.87,160.00,M,-21.3213,M,,*68
$GPGGA,090055.70,2823.12434501,S,13715.06792083,E,1,05,2.87,160.00,M,-21.3213,M,,*62
$GPGGA,090055.80,2823.12454594,S,13715.06786540,E,1,05,2.87,160.00,M,-21.3213,M,,*68
$GPGGA,090055.90,2823.12485196,S,13715.06778109,E,1,05,2.87,160.00,M,-21.3213,M,,*6B
$GPGGA,090056.00,2823.12505300,S,13715.06772576,E,1,05,2.87,160.00,M,-21.3213,M,,*63
$GPGGA,090056.10,2823.12525408,S,13715.06767048,E,1,05,2.87,160.00,M,-21.3213,M,,*63
$GPGGA,090056.20,2823.12545519,S,13715.06761523,E,1,05,2.87,160.00,M,-21.3213,M,,*69
$GPGGA,090056.30,2823.12565635,S,13715.06756001,E,1,05,2.87,160.00,M,-21.3213,M,,*66
$GPGGA,090056.40,2823.12585755,S,13715.06750483,E,1,05,2.87,160.00,M,-21.3213,M,,*60
$GPGGA,090056.50,2823.12616390,S,13715.06742090,E,1,05,2.87,160.00,M,-21.3213,M,,*60
$GPGGA,090056.60,2823.12636518,S,13715.06736582,E,1,05,2.87,160.00,M,-21.3213,M,,*62
$GPGGA,090056.70,2823.12656649,S,13715.06731076,E,1,05,2.87,160.00,M,-21.3213,M,,*6B
$GPGGA,090056.80,2823.12676783,S,13715.06725574,E,1,05,2.87,160.00,M,-21.3213,M,,*63
$GPGGA,090056.90,2823.12696921,S,13715.06720075,E,1,05,2.87,160.00,M,-21.3213,M,,*6B
$GPGGA,090057.00,2823.12717061,S,13715.06714579,E,1,05,2.87,160.00,M,-21.3213,M,,*68
$GPGGA,090057.10,2823.12747722,S,13715.06706220,E,1,05,2.87,160.00,M,-21.3213,M,,*64
$GPGGA,090057.20,2823.12767869,S,13715.06700733,E,1,05,2.87,160.00,M,-21.3213,M,,*64
$GPGGA,090057.30,2823.12788018,S,13715.06695248,E,1,05,2.87,160.00,M,-21.3213,M,,*6E
$GPGGA,090057.40,2823.12808170,S,13715.06689767,E,1,05,2.87,160.00,M,-21.3213,M,,*64
$GPGGA,090057.50,2823.12828324,S,13715.06684289,E,1,05,2.87,160.00,M,-21.3213,M,,*6C
$GPGGA,090057.60,2823.12848480,S,13715.06678814,E,1,05,2.87,160.00,M,-21.3213,M,,*6D
$GPGGA,090057.70,2823.12879162,S,13715.06670486,E,1,05,2.87,160.00,M,-21.3213,M,,*68
$GPGGA,090057.80,2823.12899324,S,13715.06665019,E,1,05,2.87,160.00,M,-21.3213,M,,*6F
$GPGGA,090057.90,2823.12919487,S,13715.06659555,E,1,05,2.87,160.00,M,-21.3213,M,,*6B
$GPGGA,090058.00,2823.12939653,S,13715.06654094,E,1,05,2.87,160.00,M,-21.3213,M,,*61
$GPGGA,090058.10,2823.12959820,S,13715.06648636,E,1,05,2.87,160.00,M,-21.3213,M,,*6F
$GPGGA,090058.20,2823.12979990,S,13715.06643181,E,1,05,2.87,160.00,M,-21.3213,M,,*64
$GPGGA,090058.30,2823.13010688,S,13715.06634885,E,1,05,2.87,160.00,M,-21.3213,M,,*69
$GPGGA,090058.40,2823.13030861,S,13715.06629438,E,1,05,2.87,160.00,M,-21.3213,M,,*63
$GPGGA,090058.50,2823.13051036,S,13715.06623994,E,1,05,2.87,160.00,M,-21.3213,M,,*6E
$GPGGA,090058.60,2823.13071213,S,13715.06618554,E,1,05,2.87,160.00,M,-21.3213,M,,*62
$GPGGA,090058.70,2823.13091391,S,13715.06613117,E,1,05,2.87,160.00,M,-21.3213,M,,*6E
$GPGGA,090058.80,2823.13111570,S,13715.06607683,E,1,05,2.87,160.00,M,-21.3213,M,,*6E
$GPGGA,090058.90,2823.13142282,S,13715.06599420,E,1,05,2.87,160.00,M,-21.3213,M,,*6C
$GPGGA,090059.00,2823.13162465,S,13715.06593995,E,1,05,2.87,160.00,M,-21.3213,M,,*60
$GPGGA,090059.10,2823.13182649,S,13715.06588574,E,1,05,2.87,160.00,M,-21.3213,M,,*6A
$GPGGA,090059.20,2823.13202834,S,13715.06583156,E,1,05,2.87,160.00,M,-21.3213,M,,*69
$GPGGA,090059.30,2823.13223020,S,13715.06577742,E,1,05,2.87,160.00,M,-21.3213,M,,*6E
$GPGGA,090059.40,2823.13243208,S,13715.06572331,E,1,05,2.87,160.00,M,-21.3213,M,,*62
$GPGGA,090059.50,2823.13273931,S,13715.06564105,E,1,05,2.87,160.00,M,-21.3213,M,,*63
$GPGGA,090059.60,2823.13294122,S,13715.06558705,E,1,05,2.87,160.00,M,-21.3213,M,,*6A
$GPGGA,090059.70,2823.13314313,S,13715.06553309,E,1,05,2.87,160.00,M,-21.3213,M,,*61
$GPGGA,090059.80,2823.13334505,S,13715.06547917,E,1,05,2.87,160.00,M,-21.3213,M,,*6D
$GPGGA,090059.90,2823.13354699,S,13715.06542530,E,1,05,2.87,160.00,M,-21.3213,M,,*60
$GPGGA,090100.00,2823.13374893,S,13715.06537146,E,1,05,2.87,160.00,M,-21.3213,M,,*65
$GPGGA,090100.10,2823.13405626,S,13715.06528964,E,1,05,2.87,160.00,M,-21.3213,M,,*63
$GPGGA,090100.20,2823.13425823,S,13715.06523592,E,1,05,2.87,160.00,M,-21.3213,M,,*67
$GPGGA,090100.30,2823.13446020,S,13715.06518226,E,1,05,2.87,160.00,M,-21.3213,M,,*68
$GPGGA,090100.40,2823.13466219,S,13715.06512865,E,1,05,2.87,160.00,M,-21.3213,M,,*62
$GPGGA,090100.50,2823.13486418,S,13715.06507510,E,1,05,2.87,160.00,M,-21.3213,M,,*61
$GPGGA,090100.60,2823.13506618,S,13715.06502159,E,1,05,2.87,160.00,M,-21.3213,M,,*65
$GPGGA,090100.70,2823.13537360,S,13715.06494028,E,1,05,2.87,160.00,M,-21.3213,M,,*65
$GPGGA,090100.80,2823.13557562,S,13715.06488692,E,1,05,2.87,160.00,M,-21.3213,M,,*62
$GPGGA,090100.90,2823.13577765,S,13715.06483363,E,1,05,2.87,160.00,M,-21.3213,M,,*64
$GPGGA,090101.00,2823.13597968,S,13715.06478040,E,1,05,2.87,160.00,M,-21.3213,M,,*67
$GPGGA,090101.10,2823.13618173,S,13715.06472723,E,1,05,2.87,160.00,M,-21.3213,M,,*68
$GPGGA,090101.20,2823.13638378,S,13715.06467413,E,1,05,2.87,160.00,M,-21.3213,M,,*64
$GPGGA,090101.30,2823.13669128,S,13715.06459346,E,1,05,2.87,160.00,M,-21.3213,M,,*6C
$GPGGA,090101.40,2823.13689336,S,13715.06454054,E,1,05,2.87,160.00,M,-21.3213,M,,*65
$GPGGA,090101.50,2823.13709543,S,13715.06448770,E,1,05,2.87,160.00,M,-21.3213,M,,*65
$GPGGA,090101.60,2823.13729752,S,13715.06443494,E,1,05,2.87,160.00,M,-21.3213,M,,*64
$GPGGA,090101.70,2823.13749961,S,13715.06438226,E,1,05,2.87,160.00,M,-21.3213,M,,*6E
$GPGGA,090101.80,2823.13770171,S,13715.06432966,E,1,05,2.87,160.00,M,-21.3213,M,,*67
$GPGGA,090101.90,2823.13800931,S,13715.06424979,E,1,05,2.87,160.00,M,-21.3213,M,,*6B
$GPGGA,090102.00,2823.13821143,S,13715.06419742,E,1,05,2.87,160.00,M,-21.3213,M,,*67
$GPGGA,090102.10,2823.13841356,S,13715.06414515,E,1,05,2.87,160.00,M,-21.3213,M,,*6B
$GPGGA,090102.20,2823.13861569,S,13715.06409299,E,1,05,2.87,160.00,M,-21.3213,M,,*6F
$GPGGA,090102.30,2823.13881783,S,13715.06404092,E,1,05,2.87,160.00,M,-21.3213,M,,*62
$GPGGA,090102.40,2823.13901998,S,13715.06398896,E,1,05,2.87,160.00,M,-21.3213,M,,*66
$GPGGA,090102.50,2823.13932767,S,13715.06391010,E,1,05,2.87,160.00,M,-21.3213,M,,*66
$GPGGA,090102.60,2823.13952985,S,13715.06385843,E,1,05,2.87,160.00,M,-21.3213,M,,*6A
$GPGGA,090102.70,2823.13973203,S,13715.06380689,E,1,05,2.87,160.00,M,-21.3213,M,,*60
$GPGGA,090102.80,2823.13993422,S,13715.06375547,E,1,05,2.87,160.00,M,-21.3213,M,,*6F
$GPGGA,090102.90,2823.14013641,S,13715.06370419,E,1,05,2.87,160.00,M,-21.3213,M,,*60
$GPGGA,090103.00,2823.14033862,S,13715.06365304,E,1,05,2.87,160.00,M,-21.3213,M,,*6A
$GPGGA,090103.10,2823.14064642,S,13715.06357546,E,1,05,2.87,160.00,M,-21.3213,M,,*64
$GPGGA,090103.20,2823.14084866,S,13715.06352469,E,1,05,2.87,160.00,M,-21.3213,M,,*68
$GPGGA,090103.30,2823.14105090,S,13715.06347406,E,1,05,2.87,160.00,M,-21.3213,M,,*6D
$GPGGA,090103.40,2823.14125315,S,13715.06342361,E,1,05,2.87,160.00,M,-21.3213,M,,*65
$GPGGA,090103.50,2823.14145541,S,13715.06337332,E,1,05,2.87,160.00,M,-21.3213,M,,*61
$GPGGA,090103.60,2823.14165768,S,13715.06332320,E,1,05,2.87,160.00,M,-21.3213,M,,*6F
$GPGGA,090103.70,2823.14196563,S,13715.06324726,E,1,05,2.87,160.00,M,-21.3213,M,,*6E
$GPGGA,090103.80,2823.14216793,S,13715.06319762,E,1,05,2.87,160.00,M,-21.3213,M,,*69
$GPGGA,090103.90,2823.14237025,S,13715.06314818,E,1,05,2.87,160.00,M,-21.3213,M,,*6E
$GPGGA,090104.00,2823.14257258,S,13715.06309895,E,1,05,2.87,160.00,M,-21.3213,M,,*67
$GPGGA,090104.10,2823.14277492,S,13715.06304993,E,1,05,2.87,160.00,M,-21.3213,M,,*6E
$GPGGA,090104.20,2823.14308302,S,13715.06297573,E,1,05,2.87,160.00,M,-21.3213,M,,*63
$GPGGA,090104.30,2823.14328540,S,13715.06292729,E,1,05,2.87,160.00,M,-21.3213,M,,*68
$GPGGA,090104.40,2823.14348780,S,13715.06287910,E,1,05,2.87,160.00,M,-21.3213,M,,*67
$GPGGA,090104.50,2823.14369022,S,13715.06283117,E,1,05,2.87,160.00,M,-21.3213,M,,*61
$GPGGA,090104.60,2823.14389265,S,13715.06278350,E,1,05,2.87,160.00,M,-21.3213,M,,*68
$GPGGA,090104.70,2823.14409509,S,13715.06273610,E,1,05,2.87,160.00,M,-21.3213,M,,*61
$GPGGA,090104.80,2823.14440342,S,13715.06266449,E,1,05,2.87,160.00,M,-21.3213,M,,*60
$GPGGA,090104.90,2823.14460593,S,13715.06261784,E,1,05,2.87,160.00,M,-21.3213,M,,*6C
$GPGGA,090105.00,2823.14480846,S,13715.06257150,E,1,05,2.87,160.00,M,-21.3213,M,,*65
$GPGGA,090105.10,2823.14501100,S,13715.06252550,E,1,05,2.87,160.00,M,-21.3213,M,,*66
$GPGGA,090105.20,2823.14521358,S,13715.06247983,E,1,05,2.87,160.00,M,-21.3213,M,,*6E
$GPGGA,090105.30,2823.14541617,S,13715.06243451,E,1,05,2.87,160.00,M,-21.3213,M,,*61
$GPGGA,090105.40,2823.14572480,S,13715.06236620,E,1,05,2.87,160.00,M,-21.3213,M,,*6C
$GPGGA,090105.50,2823.14592748,S,13715.06232184,E,1,05,2.87,160.00,M,-21.3213,M,,*69
$GPGGA,090105.60,2823.14613019,S,13715.06227788,E,1,05,2.87,160.00,M,-21.3213,M,,*6D
$GPGGA,090105.70,2823.14633293,S,13715.06223434,E,1,05,2.87,160.00,M,-21.3213,M,,*6E
$GPGGA,090105.80,2823.14653570,S,13715.06219123,E,1,05,2.87,160.00,M,-21.3213,M,,*67
$GPGGA,090105.90,2823.14684467,S,13715.06212643,E,1,05,2.87,160.00,M,-21.3213,M,,*61
$GPGGA,090106.00,2823.14704755,S,13715.06208449,E,1,05,2.87,160.00,M,-21.3213,M,,*63
$GPGGA,090106.10,2823.14725048,S,13715.06204305,E,1,05,2.87,160.00,M,-21.3213,M,,*69
$GPGGA,090106.20,2823.14745344,S,13715.06200213,E,1,05,2.87,160.00,M,-21.3213,M,,*61
$GPGGA,090106.30,2823.14765646,S,13715.06196174,E,1,05,2.87,160.00,M,-21.3213,M,,*6B
$GPGGA,090106.40,2823.14785953,S,13715.06192190,E,1,05,2.87,160.00,M,-21.3213,M,,*67
$GPGGA,090106.50,2823.14816904,S,13715.06186232,E,1,05,2.87,160.00,M,-21.3213,M,,*6F
$GPGGA,090106.60,2823.14837227,S,13715.06182399,E,1,05,2.87,160.00,M,-21.3213,M,,*61
$GPGGA,090106.70,2823.14857555,S,13715.06178628,E,1,05,2.87,160.00,M,-21.3213,M,,*6E
$GPGGA,090106.80,2823.14877891,S,13715.06174924,E,1,05,2.87,160.00,M,-21.3213,M,,*69
$GPGGA,090106.90,2823.14898234,S,13715.06171288,E,1,05,2.87,160.00,M,-21.3213,M,,*64
$GPGGA,090107.00,2823.14918585,S,13715.06167722,E,1,05,2.87,160.00,M,-21.3213,M,,*6A
$GPGGA,090107.10,2823.14949613,S,13715.06162432,E,1,05,2.87,160.00,M,-21.3213,M,,*64
$GPGGA,090107.20,2823.14969987,S,13715.06159059,E,1,05,2.87,160.00,M,-21.3213,M,,*66
$GPGGA,090107.30,2823.14990370,S,13715.06155763,E,1,05,2.87,160.00,M,-21.3213,M,,*61
$GPGGA,090107.40,2823.15010763,S,13715.06152543,E,1,05,2.87,160.00,M,-21.3213,M,,*67
$GPGGA,090107.50,2823.15031165,S,13715.06149396,E,1,05,2.87,160.00,M,-21.3213,M,,*61
$GPGGA,090107.60,2823.15062272,S,13715.06144733,E,1,05,2.87,160.00,M,-21.3213,M,,*67
$GPGGA,090107.70,2823.15082697,S,13715.06141758,E,1,05,2.87,160.00,M,-21.3213,M,,*6F
$GPGGA,090107.80,2823.15103131,S,13715.06138845,E,1,05,2.87,160.00,M,-21.3213,M,,*6E
$GPGGA,090107.90,2823.15123573,S,13715.06135994,E,1,05,2.87,160.00,M,-21.3213,M,,*6F
$GPGGA,090108.00,2823.15144024,S,13715.06133201,E,1,05,2.87,160.00,M,-21.3213,M,,*6E
$GPGGA,090108.10,2823.15164482,S,13715.06130465,E,1,05,2.87,160.00,M,-21.3213,M,,*62
$GPGGA,090108.20,2823.15195670,S,13715.06126400,E,1,05,2.87,160.00,M,-21.3213,M,,*64
$GPGGA,090108.30,2823.15216147,S,13715.06123798,E,1,05,2.87,160.00,M,-21.3213,M,,*69
$GPGGA,090108.40,2823.15236632,S,13715.06121245,E,1,05,2.87,160.00,M,-21.3213,M,,*6E
$GPGGA,090108.50,2823.15257124,S,13715.06118740,E,1,05,2.87,160.00,M,-21.3213,M,,*62
$GPGGA,090108.60,2823.15277624,S,13715.06116281,E,1,05,2.87,160.00,M,-21.3213,M,,*62
$GPGGA,090108.70,2823.15308866,S,13715.06112618,E,1,05,2.87,160.00,M,-21.3213,M,,*62
$GPGGA,090108.80,2823.15329381,S,13715.06110268,E,1,05,2.87,160.00,M,-21.3213,M,,*6D
$GPGGA,090108.90,2823.15349902,S,13715.06107957,E,1,05,2.87,160.00,M,-21.3213,M,,*6A
$GPGGA,090109.00,2823.15370429,S,13715.06105686,E,1,05,2.87,160.00,M,-21.3213,M,,*6D
$GPGGA,090109.10,2823.15390961,S,13715.06103451,E,1,05,2.87,160.00,M,-21.3213,M,,*6D
$GPGGA,090109.20,2823.15411499,S,13715.06101252,E,1,05,2.87,160.00,M,-21.3213,M,,*6D
$GPGGA,090109.30,2823.15442793,S,13715.06097970,E,1,05,2.87,160.00,M,-21.3213,M,,*66
$GPGGA,090109.40,2823.15463343,S,13715.06095857,E,1,05,2.87,160.00,M,-21.3213,M,,*6D
$GPGGA,090109.50,2823.15483897,S,13715.06093775,E,1,05,2.87,160.00,M,-21.3213,M,,*69
$GPGGA,090109.60,2823.15504456,S,13715.06091724,E,1,05,2.87,160.00,M,-21.3213,M,,*63
$GPGGA,090109.70,2823.15525019,S,13715.06089701,E,1,05,2.87,160.00,M,-21.3213,M,,*60
$GPGGA,090109.80,2823.15556347,S,13715.06086676,E,1,05,2.87,160.00,M,-21.3213,M,,*6D
$GPGGA,090109.90,2823.15576919,S,13715.06084723,E,1,05,2.87,160.00,M,-21.3213,M,,*6C
$GPGGA,090110.00,2823.15597495,S,13715.06082797,E,1,05,2.87,160.00,M,-21.3213,M,,*62
$GPGGA,090110.10,2823.15618073,S,13715.06080895,E,1,05,2.87,160.00,M,-21.3213,M,,*64
$GPGGA,090110.20,2823.15638655,S,13715.06079017,E,1,05,2.87,160.00,M,-21.3213,M,,*63
$GPGGA,090110.30,2823.15659239,S,13715.06077163,E,1,05,2.87,160.00,M,-21.3213,M,,*67
$GPGGA,090110.40,2823.15690595,S,13715.06074381,E,1,05,2.87,160.00,M,-21.3213,M,,*69
